ADDRESS;CITY;ENTITY_ID;LATITUDE;LOADER_TYPE;LONGITUDE;NUMBER_OF_CHARGING_POINTS;OPERATING_COMPANY;PLUG_TYPES_1;PLUG_TYPES_2;PLUG_TYPES_3;PLUG_TYPES_4;POWER_1_KW;POWER_2_KW;POWER_3_KW;POWER_4_KW;START_UP_DATE;ZIP_CODE
Lennéstraße 1;Dresden;1002;51.04368;Schnellladeeinrichtung;13.75427;2;Volkswagen Sachsen GmbH, Die Gläserne Manufaktur;DC Kupplung Combo, DC CHAdeMO;AC Kupplung Typ 2;;;50.0;43.0;0.0;0.0;01.10.16;1069
Antonstraße 24;Dresden;1003;51.064823;Schnellladeeinrichtung;13.739641;2;DREWAG Stadtwerke Dresden GmbH;DC Kupplung Combo, DC CHAdeMO;AC Kupplung Typ 2, AC Schuko;;;50.0;43.0;0.0;0.0;04.09.17;1097
Wigardstraße 2;Dresden;1004;51.57566;Normalladeeinrichtung;13.4964;4;DREWAG Stadtwerke Dresden GmbH;AC Steckdose Typ 2;AC Schuko;AC Steckdose Typ 2;AC Schuko;22.0;3.7;22.0;3.7;22.10.18;1097
Scharfenberger Straße 66;Dresden;1006;51.072415;Normalladeeinrichtung;13.688326;4;DREWAG Stadtwerke Dresden GmbH;AC Steckdose Typ 2;AC Schuko;AC Steckdose Typ 2;AC Schuko;22.0;3.7;22.0;3.7;22.10.18;1139
Rudolf-Walther-Straße 2;Dresden;1007;51.037086;Normalladeeinrichtung;13.636646;2;innogy SE;AC Steckdose Typ 2;AC Steckdose Typ 2;;;22.0;22.0;0.0;0.0;11.10.12;1156
Gompitzer Höhe 2;Dresden;1008;51.040065;Schnellladeeinrichtung;13.631414;2;DREWAG Stadtwerke Dresden GmbH;DC Kupplung Combo, DC CHAdeMO;AC Kupplung Typ 2;;;50.0;22.0;0.0;0.0;25.06.18;1156
Fabrikstraße 5;Dresden;1009;51.041247;Normalladeeinrichtung;13.709192;4;DREWAG Stadtwerke Dresden GmbH;AC Steckdose Typ 2;AC Schuko;AC Steckdose Typ 2;AC Schuko;22.0;3.7;22.0;3.7;22.10.18;1159
Löbtauer Straße 21;Dresden;1010;51.052879;Normalladeeinrichtung;13.71865;4;DREWAG Stadtwerke Dresden GmbH;AC Steckdose Typ 2;AC Schuko;AC Steckdose Typ 2;AC Schuko;22.0;3.7;22.0;3.7;22.10.18;1159
Bayrische Straße 0;Dresden;1011;51.039073;Schnellladeeinrichtung;13.732656;2;DREWAG Stadtwerke Dresden GmbH;AC Steckdose Typ 2;DC Kupplung Combo, DC CHAdeMO;;;22.0;50.0;0.0;0.0;26.09.18;1169
Dohnaer Str.;Dresden;1012;51.013771;Normalladeeinrichtung;13.773643;2;DREWAG Stadtwerke Dresden GmbH;AC Steckdose Typ 2;AC Steckdose Typ 2;;;11.0;11.0;0.0;0.0;02.12.18;1219
Fiedlerstraße 21a;Dresden;1013;51.054563;Normalladeeinrichtung;13.781678;4;DREWAG Stadtwerke Dresden GmbH;AC Steckdose Typ 2;AC Steckdose Typ 2;AC Steckdose Typ 2;AC Steckdose Typ 2;22.0;22.0;22.0;22.0;22.10.18;1307
Berthold-Brecht-Allee 22;Dresden;1014;51.041015;Normalladeeinrichtung;13.780581;4;DREWAG Stadtwerke Dresden GmbH;AC Steckdose Typ 2;AC Schuko;AC Steckdose Typ 2;AC Schuko;22.0;3.7;22.0;3.7;22.10.18;1309
Hüblerstr.8;Dresden;1015;51.0517908;Normalladeeinrichtung;13.8047302;2;APCOA PARKING Deutschland GmbH;AC Steckdose Typ 2;AC Steckdose Typ 2;;;11.0;11.0;0.0;0.0;01.12.16;1309
Leonardo-da-Vinci-Straße 0A;Dresden;1016;51.013049;Normalladeeinrichtung;13.864731;2;DREWAG Stadtwerke Dresden GmbH;AC Steckdose Typ 2, AC Schuko;AC Steckdose Typ 2, AC Schuko;;;11.0;11.0;0.0;0.0;28.06.16;1326
Sidonienstraße 1c;Radebeul;1017;51.098846;Normalladeeinrichtung;13.679916;4;ENSO Energie Sachsen Ost AG;AC Steckdose Typ 2;AC Schuko;AC Steckdose Typ 2;AC Schuko;22.0;3.7;22.0;3.7;22.10.18;1445
Schlossallee 2;Moritzburg;1018;51.164053;Normalladeeinrichtung;13.678783;4;ENSO Energie Sachsen Ost AG;AC Steckdose Typ 2;AC Schuko;AC Steckdose Typ 2;AC Schuko;22.0;3.7;22.0;3.7;22.10.18;1468
Schillerstraße 37;Großenhain;1019;51.294624;Schnellladeeinrichtung;13.53385;2;ENSO Energie Sachsen Ost AG;DC Kupplung Combo, DC CHAdeMO;AC Kupplung Typ 2;;;50.0;22.0;0.0;0.0;19.09.18;1558
Am Bobersberg;Großenhain;1020;51.28819912;Normalladeeinrichtung;13.5400663;2;Danpower-Gruppe;AC Steckdose Typ 2;AC Steckdose Typ 2;;;22.0;22.0;0.0;0.0;25.08.17;1558
Am Fiebig 3;Thiendorf;1021;51.039026;Schnellladeeinrichtung;13.732736;2;ENSO Energie Sachsen Ost AG;DC Kupplung Combo, DC CHAdeMO;AC Kupplung Typ 2;;;50.0;43.0;0.0;0.0;17.10.16;1561
Alleestraße 81 y;Riesa;1022;51.320246;Normalladeeinrichtung;13.262848;2;Stadtwerke Riesa GmbH;AC Steckdose Typ 2;AC Steckdose Typ 2;;;22.0;22.0;0.0;0.0;01.12.18;1591
Moritzburger Straße 2;Coswig;1023;51.129769;Normalladeeinrichtung;13.581259;3;ENSO Energie Sachsen Ost AG;AC Steckdose Typ 2;AC Schuko;AC Steckdose Typ 2;AC Schuko;22.0;3.7;22.0;3.7;22.10.18;1640
Niederauer Str. 44;Meißen;1024;51.167403;Normalladeeinrichtung;13.500904;2;innogy SE;AC Steckdose Typ 2;AC Steckdose Typ 2;;;22.0;22.0;0.0;0.0;26.07.11;1662
Im Industriegebiet 1;Nossen;1025;51.082727;Schnellladeeinrichtung;13.274002;2;Allego GmbH;DC Kupplung Combo;AC Kupplung Typ 2;;;53.0;22.0;0.0;0.0;07.04.17;1683
Im Industriegebiet 1;Nossen;1026;51.082727;Schnellladeeinrichtung;13.274002;2;Allego GmbH;DC Kupplung Combo;AC Kupplung Typ 2;;;53.0;22.0;0.0;0.0;07.04.17;1683
Im Industriegebiet 1;Nossen;1027;51.082727;Schnellladeeinrichtung;13.274002;2;Allego GmbH;DC Kupplung Combo, DC CHAdeMO;AC Kupplung Typ 2;;;50.0;43.0;0.0;0.0;07.04.17;1683
Dresdner Tor Nord;Wilsdruff;1028;51.06322;Schnellladeeinrichtung;13.56221;2;Autobahn Tank & Rast GmbH;DC Kupplung Combo, DC CHAdeMO;AC Kupplung Typ 2;;;50.0;42.0;0.0;0.0;13.07.17;1723
Dresdner Tor Süd;Wilsdruff;1029;51.06118;Schnellladeeinrichtung;13.56956;2;Autobahn Tank & Rast GmbH;DC Kupplung Combo, DC CHAdeMO;AC Kupplung Typ 2;;;50.0;42.0;0.0;0.0;04.08.17;1723
Dresdner Straße 26;Tharandt;1030;50.98294;Normalladeeinrichtung;13.588637;4;ENSO Energie Sachsen Ost AG;AC Steckdose Typ 2;AC Schuko;AC Steckdose Typ 2;AC Schuko;22.0;3.7;22.0;3.7;22.10.18;1737
Dresdner Str. 17;Altenberg;1031;50.764811;Normalladeeinrichtung;13.755286;3;ENSO Energie Sachsen Ost AG;DC Kupplung Combo, DC CHAdeMO;AC Steckdose Typ 2;AC Schuko;;20.0;20.0;3.7;0.0;19.05.16;1773
Dresdner Straße 17;Altenberg;1032;50.764811;Normalladeeinrichtung;13.755286;3;ENSO Energie Sachsen Ost AG;DC Kupplung Combo, DC CHAdeMO;AC Steckdose Typ 2;AC Schuko;;20.0;22.0;3.7;0.0;22.10.18;1773
Obere Burgstraße 6b;Pirna;1033;50.961326;Normalladeeinrichtung;13.944001;4;Energieversorgung Pirna GmbH;AC Steckdose Typ 2;AC Schuko;AC Steckdose Typ 2;AC Schuko;22.0;3.7;22.0;3.7;22.10.18;1796
Am Markt 2;Dohna;1034;50.955056;Normalladeeinrichtung;13.857779;2;ENSO Energie Sachsen Ost AG;AC Steckdose Typ 2;AC Steckdose Typ 2;;;11.0;11.0;0.0;0.0;08.12.16;1809
Dresdner Str. 3;Bad;1035;50.918421;Normalladeeinrichtung;14.149496;3;ENSO Energie Sachsen Ost AG;DC Kupplung Combo, DC CHAdeMO;AC Steckdose Typ 2;AC Schuko;;20.0;22.0;3.7;0.0;06.04.16;1814
Dresdner Straße 3;Bad;1036;50.918452;Normalladeeinrichtung;14.149507;2;ENSO Energie Sachsen Ost AG;DC Kupplung Combo, DC CHAdeMO;AC Steckdose Typ 2;AC Schuko;;20.0;22.0;3.7;0.0;22.10.18;1814
Elbweg 13;Kurort;1037;50.956012;Normalladeeinrichtung;14.079159;4;ENSO Energie Sachsen Ost AG;AC Steckdose Typ 2;AC Schuko;AC Steckdose Typ 2;AC Schuko;22.0;3.7;22.0;3.7;22.10.18;1824
Elbufer 5;Stadt;1038;50.956385;Normalladeeinrichtung;14.032453;4;ENSO Energie Sachsen Ost AG;AC Steckdose Typ 2;AC Schuko;AC Steckdose Typ 2;AC Schuko;22.0;3.7;22.0;3.7;29.11.18;1829
Altmarkt 14;Bischofswerda;1039;51.127646;Normalladeeinrichtung;14.180383;2;ENSO Energie Sachsen Ost AG;AC Steckdose Typ 2;AC Steckdose Typ 2;;;11.0;11.0;0.0;0.0;04.05.17;1877
Markt 2;Kamenz;1040;51.269848;Normalladeeinrichtung;14.095198;2;ewag kamenz Energie und Wasserversorgung AG Kamenz;AC Steckdose Typ 2;AC Steckdose Typ 2;;;22.0;22.0;0.0;0.0;11.12.17;1917
Schulplatz 5;Kamenz;1041;51.271285;Normalladeeinrichtung;14.094098;2;ewag kamenz Energie und Wasserversorgung AG Kamenz;AC Steckdose Typ 2;AC Steckdose Typ 2;;;22.0;22.0;0.0;0.0;11.12.17;1917
Macherstraße 55/ Parkplatz Garnisonsplatz;Kamenz;1042;51.282579;Normalladeeinrichtung;14.105646;2;ewag kamenz Energie und Wasserversorgung AG Kamenz;AC Steckdose Typ 2;AC Steckdose Typ 2;;;22.0;22.0;0.0;0.0;11.12.17;1917
Oberlausitz Nord;Bautzen;1043;51.199484;Schnellladeeinrichtung;14.331987;2;Autobahn Tank & Rast GmbH;DC Kupplung Combo, DC CHAdeMO;AC Kupplung Typ 2;;;50.0;42.0;0.0;0.0;04.05.17;2625
Oberlausitz Süd;Bautzen;1044;51.198549;Schnellladeeinrichtung;14.328689;2;Autobahn Tank & Rast GmbH;DC Kupplung Combo, DC CHAdeMO;AC Kupplung Typ 2;;;50.0;42.0;0.0;0.0;28.07.17;2625
Löbauer Strasse 62;Bautzen;1045;51.177675;Normalladeeinrichtung;14.455208;1;Autohaus Kiethe OHG;AC Steckdose Typ 2;;;;3.7;0.0;0.0;0.0;10.11.16;2625
Muskauer Str. 31;Bautzen;1046;51.18594;Normalladeeinrichtung;14.437878;2;Autohaus Ruffert GmbH;AC Steckdose Typ 2;AC Steckdose Typ 2;;;11.0;11.0;0.0;0.0;29.09.18;2625
Niedermarkt 1a;Schirgiswalde-Kirschau;1047;51.077641;Normalladeeinrichtung;14.432227;4;ENSO Energie Sachsen Ost AG;AC Steckdose Typ 2;AC Schuko;AC Steckdose Typ 2;AC Schuko;22.0;3.7;22.0;3.7;22.10.18;2681
Weststr. 2;Löbau;1048;51.107259;Normalladeeinrichtung;14.655267;2;Autohaus Ruffert GmbH;AC Steckdose Typ 2;AC Steckdose Typ 2;;;11.0;11.0;0.0;0.0;29.09.18;2708
Bautzener Str. 2;Neusalza-Spremberg;1049;51.037525;Normalladeeinrichtung;14.530535;4;ENSO Energie Sachsen Ost AG;AC Steckdose Typ 2;AC Schuko;AC Steckdose Typ 2;AC Schuko;22.0;3.7;22.0;3.7;30.06.16;2742
Breite Straße;Zittau;1050;50.8948833;Normalladeeinrichtung;14.80493333;2;Stadtwerke Zittau GmbH;AC Steckdose Typ 2, AC Schuko;AC Steckdose Typ 2, AC Schuko;;;22.0;22.0;0.0;0.0;01.07.16;2763
Markt 1;Hoyerswerda;1051;51.43887;Normalladeeinrichtung;14.24506;2;Versorgungsbetriebe Hoyerswerda GmbH;AC Steckdose Typ 2;AC Steckdose Typ 2;;;22.0;22.0;0.0;0.0;13.08.18;2977
Lausitzer Platz 1;Hoyerswerda;1052;51.43923;Normalladeeinrichtung;14.2623;2;Versorgungsbetriebe Hoyerswerda GmbH;AC Steckdose Typ 2;AC Steckdose Typ 2;;;22.0;22.0;0.0;0.0;13.08.18;2977
Annahofer Graben 1-3;Kolitz;1053;51.71768;Normalladeeinrichtung;14.28885;2;envia Mitteldeutsche Energie AG;AC Steckdose Typ 2;AC Steckdose Typ 2;;;22.0;22.0;0.0;0.0;31.12.14;3099
Georgenstraße 37;Spremberg;1054;51.573321;Normalladeeinrichtung;14.379096;2;Städtische Werke Spremberg (Lausitz) GmbH;AC Steckdose Typ 2;AC Steckdose Typ 2;;;22.0;22.0;0.0;0.0;04.08.17;3130
An der Lusatia 23-24;Spremberg;1055;51.55888;Normalladeeinrichtung;14.3584;2;Städtische Werke Spremberg (Lausitz) GmbH;AC Steckdose Typ 2;AC Steckdose Typ 2;;;22.0;22.0;0.0;0.0;16.03.18;3130
Parkplatz Lindenplatz;Forst;1056;51.745573;Normalladeeinrichtung;14.648418;2;Stadtwerke Forst GmbH;AC Steckdose Typ 2;AC Steckdose Typ 2;;;20.0;20.0;0.0;0.0;22.05.17;3149
Wehrinselstraße , Parkplatz Rosengarten;Forst;1057;51.72881;Normalladeeinrichtung;14.66155;2;Stadtwerke Forst GmbH;AC Steckdose Typ 2;AC Steckdose Typ 2;;;20.0;20.0;0.0;0.0;15.11.17;3149
Heinrich-Heine Straße, Parkplatz Kreishaus;Forst;1058;51.750235;Normalladeeinrichtung;14.653206;2;Stadtwerke Forst GmbH;AC Steckdose Typ 2;AC Steckdose Typ 2;;;20.0;20.0;0.0;0.0;15.11.17;3149
Friedrich-Wilke-Platz;Guben;1059;51.95067;Normalladeeinrichtung;14.71415;2;Energieversorgung Guben GmbH;AC Steckdose Typ 2;AC Steckdose Typ 2;;;22.0;22.0;0.0;0.0;09.09.17;3172
Kurt-Schumacher Straße 6;Leipzig;1060;51.344799;Normalladeeinrichtung;12.379215;4;Stadtwerke Leipzig GmbH;AC Steckdose Typ 2;AC Steckdose Typ 2;AC Steckdose Typ 2;AC Steckdose Typ 2;11.0;11.0;11.0;11.0;01.06.16;4103
Johannisallee 20;Leipzig;1061;51.332494;Normalladeeinrichtung;12.395254;2;Stadtwerke Leipzig GmbH;AC Steckdose Typ 2;AC Steckdose Typ 2;;;11.0;11.0;0.0;0.0;01.06.16;4103
Brüderstr. 59;Leipzig;1062;51.33278;Normalladeeinrichtung;12.38621;4;agile accelerator GmbH;AC Steckdose Typ 2;AC Steckdose Typ 2;AC Steckdose Typ 2;AC Steckdose Typ 2;22.0;22.0;22.0;22.0;11.09.17;4103
Pfaffendorfer Straße 29;Leipzig;1063;51.348799;Normalladeeinrichtung;12.372033;1;Stadtwerke Leipzig GmbH;AC Steckdose Typ 2, AC Schuko;;;;3.7;0.0;0.0;0.0;01.01.12;4105
Pfaffendorfer Straße 6;Leipzig;1064;51.344578;Normalladeeinrichtung;12.370884;2;Stadtwerke Leipzig GmbH;AC Steckdose Typ 2;AC Steckdose Typ 2;;;11.0;11.0;0.0;0.0;01.06.16;4105
Nordplatz 3;Leipzig;1065;51.351707;Normalladeeinrichtung;12.373175;2;Stadtwerke Leipzig GmbH;AC Steckdose Typ 2;AC Steckdose Typ 2;;;11.0;11.0;0.0;0.0;01.06.16;4105
Pfaffendorfer Straße 29;Leipzig;1066;51.348861;Normalladeeinrichtung;12.372073;1;Stadtwerke Leipzig GmbH;AC Steckdose Typ 2, AC Schuko;;;;3.7;0.0;0.0;0.0;01.01.12;4105
Pfaffendorfer Straße 29;Leipzig;1067;51.348832;Normalladeeinrichtung;12.372059;1;Stadtwerke Leipzig GmbH;AC Steckdose Typ 2, AC Schuko;;;;3.7;0.0;0.0;0.0;01.01.12;4105
Pfaffendorfer Straße 29;Leipzig;1068;51.348764;Normalladeeinrichtung;12.372049;1;Stadtwerke Leipzig GmbH;AC Schuko;;;;3.7;0.0;0.0;0.0;01.01.12;4105
Georg Schumann Straße 2;Leipzig;1069;51.357459;Normalladeeinrichtung;12.37707;2;Stadtwerke Leipzig GmbH;AC Steckdose Typ 2;AC Steckdose Typ 2;;;11.0;11.0;0.0;0.0;01.06.16;4105
Reichsstraße 1;Leipzig;1070;51.340508;Normalladeeinrichtung;12.376691;4;Stadtwerke Leipzig GmbH;AC Schuko;AC Steckdose Typ 2;AC Schuko;AC Steckdose Typ 2;3.7;22.0;3.7;22.0;01.02.16;4105
Theresienstraße 4;Leipzig;1071;51.358949;Normalladeeinrichtung;12.380288;4;Stadtwerke Leipzig GmbH;AC Schuko;AC Steckdose Typ 2;AC Schuko;AC Steckdose Typ 2;3.7;22.0;3.7;22.0;01.10.12;4105
Am Sportforum 2;Leipzig;1072;51.34213;Normalladeeinrichtung;12.353327;4;Stadtwerke Leipzig GmbH;AC Schuko;AC Steckdose Typ 2;AC Schuko;AC Steckdose Typ 2;3.7;22.0;3.7;22.0;31.05.14;4105
Nordstraße 25;Leipzig;1073;51.346486;Normalladeeinrichtung;12.375035;2;Stadtwerke Leipzig GmbH;AC Steckdose Typ 2;AC Steckdose Typ 2;;;22.0;22.0;0.0;0.0;01.06.17;4105
Markgrafenstraße 2;Leipzig;1074;51.336691;Normalladeeinrichtung;12.374587;2;Stadtwerke Leipzig GmbH;AC Steckdose Typ 2;AC Steckdose Typ 2;;;11.0;11.0;0.0;0.0;01.06.16;4107
Peterssteinweg 19;Leipzig;1075;51.332296;Normalladeeinrichtung;12.373996;2;Stadtwerke Leipzig GmbH;AC Steckdose Typ 2;AC Steckdose Typ 2;;;11.0;11.0;0.0;0.0;01.06.16;4107
Riemannstraße 8;Leipzig;1076;51.330377;Normalladeeinrichtung;12.379899;2;Stadtwerke Leipzig GmbH;AC Steckdose Typ 2;AC Steckdose Typ 2;;;11.0;11.0;0.0;0.0;01.06.16;4107
Wächterstraße 13;Leipzig;1077;51.333198;Normalladeeinrichtung;12.366802;4;Stadtwerke Leipzig GmbH;AC Schuko;AC Steckdose Typ 2;AC Schuko;AC Steckdose Typ 2;3.7;22.0;3.7;22.0;01.10.11;4107
Mozartstraße 1-5;Leipzig;1078;51.331742;Normalladeeinrichtung;12.36862;1;Stadtwerke Leipzig GmbH;AC Steckdose Typ 2;;;;3.7;0.0;0.0;0.0;01.04.16;4107
Mozartstraße 1-5;Leipzig;1079;51.331678;Normalladeeinrichtung;12.368279;1;Stadtwerke Leipzig GmbH;AC Steckdose Typ 2;;;;3.7;0.0;0.0;0.0;01.04.16;4107
Mozartstraße 1-5;Leipzig;1080;51.331598;Normalladeeinrichtung;12.367812;1;Stadtwerke Leipzig GmbH;AC Steckdose Typ 2;;;;3.7;0.0;0.0;0.0;01.04.16;4107
Mozartstraße 1-5;Leipzig;1081;51.331521;Normalladeeinrichtung;12.367364;1;Stadtwerke Leipzig GmbH;AC Steckdose Typ 2;;;;3.7;0.0;0.0;0.0;01.04.16;4107
Petersstraße 36-44;Leipzig;1082;51.3375282;Normalladeeinrichtung;12.3742305;2;APCOA PARKING Deutschland GmbH;AC Steckdose Typ 2;AC Steckdose Typ 2;;;11.0;11.0;0.0;0.0;01.12.16;4109
Friedrich-Eber Straße 51;Leipzig;1083;51.338701;Normalladeeinrichtung;12.362342;2;Stadtwerke Leipzig GmbH;AC Steckdose Typ 2;AC Steckdose Typ 2;;;11.0;11.0;0.0;0.0;01.06.16;4109
Georgiring 3;Leipzig;1084;51.340184;Normalladeeinrichtung;12.382769;2;Stadtwerke Leipzig GmbH;AC Steckdose Typ 2;AC Steckdose Typ 2;;;11.0;11.0;0.0;0.0;01.06.16;4109
Augustusplatz 7;Leipzig;1085;51.337889;Normalladeeinrichtung;12.381761;2;Stadtwerke Leipzig GmbH;AC Steckdose Typ 2;AC Steckdose Typ 2;;;11.0;11.0;0.0;0.0;01.06.16;4109
Friedrich Ebert Straße 63;Leipzig;1086;51.339545;Normalladeeinrichtung;12.361864;1;Stadtwerke Leipzig GmbH;AC Schuko;;;;3.7;0.0;0.0;0.0;01.01.12;4109
Willmar Schwabe Straße 2-4;Leipzig;1087;51.341697;Normalladeeinrichtung;12.357864;2;Stadtwerke Leipzig GmbH;AC Steckdose Typ 2;AC Steckdose Typ 2;;;11.0;11.0;0.0;0.0;01.06.16;4109
Brühl 1;Leipzig;1088;51.343758;Normalladeeinrichtung;12.376692;1;Stadtwerke Leipzig GmbH;AC Schuko;;;;3.7;0.0;0.0;0.0;01.01.13;4109
Jahnallee 56;Leipzig;1089;51.337952;Normalladeeinrichtung;12.339783;2;Stadtwerke Leipzig GmbH;AC Steckdose Typ 2;AC Steckdose Typ 2;;;11.0;11.0;0.0;0.0;01.06.16;4109
Brühl 1;Leipzig;1090;51.34371;Normalladeeinrichtung;12.376692;1;Stadtwerke Leipzig GmbH;AC Schuko;;;;3.7;0.0;0.0;0.0;01.01.13;4109
Martin Lutrher Ring 4-6;Leipzig;1091;51.33577;Normalladeeinrichtung;12.373184;4;Stadtwerke Leipzig GmbH;AC Schuko;AC Steckdose Typ 2;AC Schuko;AC Steckdose Typ 2;3.7;22.0;3.7;22.0;01.01.12;4109
Ratsfreischulstraße 5;Leipzig;1092;51.338069;Normalladeeinrichtung;12.371162;4;Stadtwerke Leipzig GmbH;AC Schuko;AC Steckdose Typ 2;AC Schuko;AC Steckdose Typ 2;3.7;22.0;3.7;22.0;01.05.16;4109
Dittrichring 16;Leipzig;1093;51.340876;Normalladeeinrichtung;12.371864;4;Stadtwerke Leipzig GmbH;AC Schuko;AC Steckdose Typ 2;AC Schuko;AC Steckdose Typ 2;3.7;22.0;3.7;22.0;01.06.16;4109
Ritterstraße 28;Leipzig;1094;51.341299;Normalladeeinrichtung;12.380434;4;Stadtwerke Leipzig GmbH;AC Steckdose Typ 2;AC Schuko;AC Steckdose Typ 2;AC Schuko;22.0;3.7;22.0;3.7;01.06.16;4109
Richard Wagner Straße 10;Leipzig;1095;51.343893;Normalladeeinrichtung;12.377814;2;Stadtwerke Leipzig GmbH;AC Steckdose Typ 2, AC Schuko;AC Steckdose Typ 2, AC Schuko;;;22.0;22.0;0.0;0.0;01.07.16;4109
Willy-Brandt Platz 7;Leipzig;1096;51.344946;Normalladeeinrichtung;12.379212;2;Stadtwerke Leipzig GmbH;DC Kupplung Combo, DC CHAdeMO;AC Steckdose Typ 2;;;20.0;22.0;0.0;0.0;28.06.17;4109
Essener Straße 27;Leipzig;1097;51.377046;Normalladeeinrichtung;12.395435;4;Stadtwerke Leipzig GmbH;AC Schuko;AC Steckdose Typ 2;AC Schuko;AC Steckdose Typ 2;3.7;22.0;3.7;22.0;01.01.14;4129
Thaerstraße 1;Leipzig;1098;51.368274;Normalladeeinrichtung;12.386422;2;Stadtwerke Leipzig GmbH;AC Steckdose Typ 2;AC Steckdose Typ 2;;;11.0;11.0;0.0;0.0;01.06.16;4129
Blochmannstraße 59;Leipzig;1099;51.362974;Normalladeeinrichtung;12.37362;2;Stadtwerke Leipzig GmbH;AC Steckdose Typ 2;AC Steckdose Typ 2;;;11.0;11.0;0.0;0.0;01.06.16;4155
Handelsstraße 4;Leipzig;1100;51.400675;Normalladeeinrichtung;12.400294;1;Stadtwerke Leipzig GmbH;DC Kupplung Combo, DC CHAdeMO;;;;20.0;0.0;0.0;0.0;23.03.17;4156
Virchowstraße 91;Leipzig;1101;51.375483;Normalladeeinrichtung;12.378675;2;Stadtwerke Leipzig GmbH;AC Steckdose Typ 2;AC Steckdose Typ 2;;;11.0;11.0;0.0;0.0;01.06.16;4157
Hugo-Junkers-Straße 3 Pforte WEST;Leipzig;1102;51.40241;Normalladeeinrichtung;12.28257;2;innogy SE;AC Steckdose Typ 2;AC Steckdose Typ 2;;;22.0;22.0;0.0;0.0;06.09.16;4158
Hugo-Junkers-Straße 3 Pforte WEST;Leipzig;1103;51.40241;Normalladeeinrichtung;12.28257;2;innogy SE;AC Steckdose Typ 2;AC Steckdose Typ 2;;;22.0;22.0;0.0;0.0;06.09.16;4158
Hugo-Junkers-Straße 3 Pforte WEST;Leipzig;1104;51.40241;Normalladeeinrichtung;12.28257;2;innogy SE;AC Steckdose Typ 2;AC Steckdose Typ 2;;;22.0;22.0;0.0;0.0;06.09.16;4158
Porschestraße 1 Hauptpforte NORD Tor 1;Leipzig;1105;51.41088;Normalladeeinrichtung;12.29452;2;innogy SE;AC Steckdose Typ 2;AC Steckdose Typ 2;;;22.0;22.0;0.0;0.0;06.09.16;4158
Porschestraße 1 Hauptpforte NORD Tor 1;Leipzig;1106;51.41088;Normalladeeinrichtung;12.29452;2;innogy SE;AC Steckdose Typ 2;AC Steckdose Typ 2;;;22.0;22.0;0.0;0.0;06.09.16;4158
Porschestraße 1 Hauptpforte NORD Tor 1;Leipzig;1107;51.41088;Normalladeeinrichtung;12.29452;2;innogy SE;AC Steckdose Typ 2;AC Steckdose Typ 2;;;22.0;22.0;0.0;0.0;06.09.16;4158
Georg Schumann Straße 156;Leipzig;1108;51.36644;Normalladeeinrichtung;12.349901;2;Stadtwerke Leipzig GmbH;AC Steckdose Typ 2;AC Steckdose Typ 2;;;11.0;11.0;0.0;0.0;01.06.16;4159
Lindenauer Markt 19;Leipzig;1109;51.337456;Normalladeeinrichtung;12.333714;2;Stadtwerke Leipzig GmbH;AC Steckdose Typ 2;AC Steckdose Typ 2;;;11.0;11.0;0.0;0.0;01.06.16;4177
Lindenauer Markt 2;Leipzig;1110;51.3369642;Schnellladeeinrichtung;12.335467;2;Kaufland Warenhandel West-Sachsen GmbH & Co. KG;AC Kupplung Typ 2;DC Kupplung Combo, DC CHAdeMO;;;43.0;50.0;0.0;0.0;24.01.18;4177
Hans Driesch Straße 40;Leipzig;1111;51.347594;Normalladeeinrichtung;12.313222;2;Stadtwerke Leipzig GmbH;AC Steckdose Typ 2;AC Steckdose Typ 2;;;11.0;11.0;0.0;0.0;01.06.16;4179
Ludwig Hupfeld Straße 3;Leipzig;1112;51.351696;Normalladeeinrichtung;12.300375;4;Stadtwerke Leipzig GmbH;AC Schuko;AC Steckdose Typ 2;AC Schuko;AC Steckdose Typ 2;3.7;22.0;3.7;22.0;01.01.14;4179
Lützner Straße 125;Leipzig;1113;51.330615;Normalladeeinrichtung;12.321156;1;Stadtwerke Leipzig GmbH;AC Steckdose Typ 2, AC Schuko;;;;3.7;0.0;0.0;0.0;01.06.13;4179
Lützner Straße 125;Leipzig;1114;51.331698;Normalladeeinrichtung;12.320062;1;Stadtwerke Leipzig GmbH;AC Steckdose Typ 2, AC Schuko;;;;3.7;0.0;0.0;0.0;01.06.13;4179
Brünner Straße 12;Leipzig;1115;51.324583;Normalladeeinrichtung;12.306496;4;Stadtwerke Leipzig GmbH;AC Schuko;AC Steckdose Typ 2;AC Schuko;AC Steckdose Typ 2;3.7;22.0;3.7;22.0;01.01.14;4209
Schönauer Ring 85;Leipzig;1116;51.323001;Normalladeeinrichtung;12.287191;2;Stadtwerke Leipzig GmbH;AC Steckdose Typ 2;AC Steckdose Typ 2;;;11.0;11.0;0.0;0.0;01.06.16;4209
Semmelweißstraße 12;Leipzig;1117;51.324223;Normalladeeinrichtung;12.400413;4;Stadtwerke Leipzig GmbH;AC Steckdose Typ 2;AC Steckdose Typ 2;AC Steckdose Typ 2;AC Steckdose Typ 2;11.0;11.0;11.0;11.0;01.06.16;4217
Gießerstraße 37;Leipzig;1118;51.324518;Normalladeeinrichtung;12.327299;2;innogy SE;AC Steckdose Typ 2;AC Steckdose Typ 2;;;22.0;22.0;0.0;0.0;21.11.11;4229
Könneritzstraße 95;Leipzig;1119;51.319443;Normalladeeinrichtung;12.341768;2;Stadtwerke Leipzig GmbH;AC Steckdose Typ 2;AC Steckdose Typ 2;;;11.0;11.0;0.0;0.0;01.06.16;4229
Zur Weißen Mark 1;Leipzig;1120;51.251353;Normalladeeinrichtung;12.314708;4;Stadtwerke Leipzig GmbH;AC Schuko;AC Steckdose Typ 2;AC Schuko;AC Steckdose Typ 2;3.7;22.0;3.7;22.0;01.01.13;4249
Karl-Liebknecht Straße 52;Leipzig;1121;51.324596;Normalladeeinrichtung;12.373396;2;Stadtwerke Leipzig GmbH;AC Steckdose Typ 2;AC Steckdose Typ 2;;;11.0;11.0;0.0;0.0;01.06.16;4275
Bernhard Göring Straße 152;Leipzig;1122;51.310845;Normalladeeinrichtung;12.376104;1;Stadtwerke Leipzig GmbH;AC Schuko;;;;3.7;0.0;0.0;0.0;01.01.12;4277
Scheffelstraße 35;Leipzig;1123;51.311695;Normalladeeinrichtung;12.372912;2;Stadtwerke Leipzig GmbH;AC Steckdose Typ 2;AC Steckdose Typ 2;;;11.0;11.0;0.0;0.0;01.06.16;4277
Bornaische Straße 108;Leipzig;1124;51.301227;Normalladeeinrichtung;12.384566;2;Stadtwerke Leipzig GmbH;AC Steckdose Typ 2;AC Steckdose Typ 2;;;11.0;11.0;0.0;0.0;01.06.16;4277
Karl Liebknecht Straße 132;Leipzig;1125;51.31451;Normalladeeinrichtung;12.373186;4;Stadtwerke Leipzig GmbH;AC Schuko;AC Steckdose Typ 2;AC Schuko;AC Steckdose Typ 2;3.7;22.0;3.7;22.0;01.10.11;4277
Bornaische Straße 55;Leipzig;1126;51.305046;Normalladeeinrichtung;12.382487;2;Stadtwerke Leipzig GmbH;AC Steckdose Typ 2;AC Steckdose Typ 2;;;22.0;22.0;0.0;0.0;05.07.18;4277
Dresdnerstraße 80;Leipzig;1127;51.3373523;Schnellladeeinrichtung;12.4047889;2;Kaufland Warenhandel Löbau GmbH & Co. KG;AC Kupplung Typ 2;DC Kupplung Combo, DC CHAdeMO;;;43.0;50.0;0.0;0.0;24.01.18;4317
Schongauer Str. 29-31;Leipzig;1128;51.348367;Normalladeeinrichtung;12.471781;2;Autohaus Müller Leipzig;AC Steckdose Typ 2;AC Steckdose Typ 2;;;11.0;11.0;0.0;0.0;05.09.18;4328
Schongauer Str 29-31;Leipzig;1129;51.348367;Normalladeeinrichtung;12.471781;2;Autohaus Müller Leipzig GmbH;AC Steckdose Typ 2;AC Steckdose Typ 2;;;22.0;22.0;0.0;0.0;09.11.18;4328
Hertzstraße 4;Leipzig;1130;51.367626;Normalladeeinrichtung;12.466561;4;Stadtwerke Leipzig GmbH;DC Kupplung Combo, DC CHAdeMO;AC Steckdose Typ 2;AC Steckdose Typ 2;AC Steckdose Typ 2;20.0;22.0;22.0;22.0;27.08.18;4329
Stannebeinplatz 3;Leipzig;1131;51.351586;Normalladeeinrichtung;12.407062;2;Stadtwerke Leipzig GmbH;AC Steckdose Typ 2;AC Steckdose Typ 2;;;11.0;11.0;0.0;0.0;01.06.16;4347
Messe Allee 1;Leipzig;1132;51.39844;Normalladeeinrichtung;12.399376;4;Stadtwerke Leipzig GmbH;AC Schuko;AC Steckdose Typ 2;AC Schuko;AC Steckdose Typ 2;3.7;22.0;3.7;22.0;01.01.14;4356
Messe Allee 1;Leipzig;1133;51.395998;Normalladeeinrichtung;12.395038;4;Stadtwerke Leipzig GmbH;AC Schuko;AC Steckdose Typ 2;AC Schuko;AC Steckdose Typ 2;3.7;22.0;3.7;22.0;01.01.14;4356
Friedrich-Ebert-Straße 26;Markkleeberg;1134;51.28402;Normalladeeinrichtung;12.369383;2;envia Mitteldeutsche Energie AG;AC Steckdose Typ 2;AC Steckdose Typ 2;;;22.0;22.0;0.0;0.0;31.12.14;4416
Südring 21;Markkleeberg;1135;51.281298;Normalladeeinrichtung;12.428057;4;Stadtwerke Leipzig GmbH;AC Schuko;AC Steckdose Typ 2;AC Schuko;AC Steckdose Typ 2;3.7;22.0;3.7;22.0;01.01.12;4416
Rathausstraße 29;Markkleeberg;1136;51.278532;Normalladeeinrichtung;12.372069;1;Stadtverwaltung Markkleeberg;AC Steckdose Typ 2;;;;22.0;0.0;0.0;0.0;15.09.17;4416
Magdeborner Straße 2;Markkleeberg;1137;51.28469;Normalladeeinrichtung;12.423812;4;Stadtwerke Leipzig GmbH;AC Schuko;AC Steckdose Typ 2;AC Schuko;AC Steckdose Typ 2;3.7;22.0;3.7;22.0;01.11.13;4417
Otto-Schmidt-Straße;Taucha;1138;51.372146;Schnellladeeinrichtung;12.476382;2;envia Mitteldeutsche Energie AG;AC Kupplung Typ 2;DC Kupplung Combo, DC CHAdeMO;;;43.0;50.0;0.0;0.0;06.12.16;4425
Bierweg 6;Schkeuditz;1139;51.39956;Schnellladeeinrichtung;12.19167;2;Allego GmbH;DC Kupplung Combo, DC CHAdeMO;AC Kupplung Typ 2;;;50.0;43.0;0.0;0.0;30.10.15;4435
Terminalring 2;Schkeuditz;1140;51.422048;Normalladeeinrichtung;12.221704;2;Stadtwerke Leipzig GmbH;AC Steckdose Typ 2;AC Steckdose Typ 2;;;11.0;11.0;0.0;0.0;09.04.18;4435
Terminalring 2;Schkeuditz;1141;51.421952;Normalladeeinrichtung;12.221665;2;Stadtwerke Leipzig GmbH;AC Steckdose Typ 2;AC Steckdose Typ 2;;;11.0;11.0;0.0;0.0;09.04.18;4435
Hafenstraße 2;Zwenkau;1142;51.23369;Normalladeeinrichtung;12.335186;2;envia Mitteldeutsche Energie AG;AC Steckdose Typ 2;AC Steckdose Typ 2;;;22.0;22.0;0.0;0.0;31.12.14;4442
Rathausstraße 1;Borsdorf;1143;51.346825;Normalladeeinrichtung;12.540421;1;Gemeinde Borsdorf;AC Steckdose Typ 2;;;;22.0;0.0;0.0;0.0;09.08.16;4451
Heinrich-Kretschmann-Straße 14;Borsdorf;1144;51.346964;Normalladeeinrichtung;12.539788;2;Gemeinde Borsdorf;AC Steckdose Typ 2;AC Steckdose Typ 2;;;22.0;22.0;0.0;0.0;07.12.17;4451
Eisenbahnstraße 14;Delitzsch;1145;51.524888;Normalladeeinrichtung;12.344463;4;Stadtwerke Leipzig GmbH;AC Schuko;AC Steckdose Typ 2;AC Schuko;AC Steckdose Typ 2;3.7;22.0;3.7;22.0;01.10.11;4509
Markt 1;Delitzsch;1146;51.522408;Normalladeeinrichtung;12.333105;4;Stadtwerke Leipzig GmbH;AC Schuko;AC Steckdose Typ 2;AC Schuko;AC Steckdose Typ 2;3.7;22.0;3.7;22.0;01.10.11;4509
Am Wilhelmsschacht 34;Borna;1147;51.111864;Schnellladeeinrichtung;12.488579;2;Kaufland Vertrieb 220 GmbH & Co KG;AC Kupplung Typ 2;DC Kupplung Combo, DC CHAdeMO;;;43.0;50.0;0.0;0.0;06.11.18;4552
Am Wilhelmschacht 20;Borna;1148;51.11474;Normalladeeinrichtung;12.48497;2;Städtische Werke Borna GmbH;AC Steckdose Typ 2;AC Steckdose Typ 2;;;11.0;11.0;0.0;0.0;01.10.18;4552
Kasernenstraße Parkplatz;Borna;1149;51.11808;Normalladeeinrichtung;12.18784;2;Städtische Werke Borna GmbH;AC Steckdose Typ 2;AC Steckdose Typ 2;;;11.0;11.0;0.0;0.0;01.10.18;4552
Brauhausstraße Parkplatz;Borna;1150;51.1225;Normalladeeinrichtung;12.49777;2;Städtische Werke Borna GmbH;AC Steckdose Typ 2;AC Steckdose Typ 2;;;11.0;11.0;0.0;0.0;01.10.18;4552
Röthaer Straße Parkplatz;Borna;1151;51.12817;Normalladeeinrichtung;12.49965;2;Städtische Werke Borna GmbH;AC Steckdose Typ 2;AC Steckdose Typ 2;;;11.0;11.0;0.0;0.0;01.10.18;4552
Rudolf-Virchow-Straße Parkhaus;Borna;1152;51.1352;Normalladeeinrichtung;12.50387;2;Städtische Werke Borna GmbH;AC Steckdose Typ 2;AC Steckdose Typ 2;;;11.0;11.0;0.0;0.0;01.10.18;4552
Ernst-Schneller-Straße 1;Kitzscher;1153;51.16385;Normalladeeinrichtung;12.55022;2;envia Mitteldeutsche Energie AG;AC Steckdose Typ 2;AC Steckdose Typ 2;;;22.0;22.0;0.0;0.0;31.12.14;4567
Markt 17;Neukieritzsch;1154;51.151658;Normalladeeinrichtung;12.411113;2;envia Mitteldeutsche Energie AG;AC Steckdose Typ 2;AC Steckdose Typ 2;;;22.0;22.0;0.0;0.0;31.12.14;4575
August-Bebel-Straße 16/17;Altenburg;1155;50.98022268;Normalladeeinrichtung;12.43202591;1;last Hotelinvest GmbH;AC Steckdose Typ 2;;;;22.0;0.0;0.0;0.0;01.05.18;4600
Altenburger Land Nord;Schmölln;1156;50.861;Schnellladeeinrichtung;12.305;2;Autobahn Tank & Rast GmbH;DC Kupplung Combo, DC CHAdeMO;AC Kupplung Typ 2;;;50.0;42.0;0.0;0.0;02.06.17;4626
Altenburger Land Süd;Schmölln;1157;50.858;Schnellladeeinrichtung;12.314;2;Autobahn Tank & Rast GmbH;DC Kupplung Combo, DC CHAdeMO;AC Kupplung Typ 2;;;50.0;42.0;0.0;0.0;02.06.17;4626
Markt 1;Schmölln;1158;50.894626;Normalladeeinrichtung;12.351819;2;Thüringer Energie AG;AC Steckdose Typ 2;AC Steckdose Typ 2;;;22.0;22.0;0.0;0.0;25.10.17;4626
Ballendorfer Straße 18a;Bad;1159;51.1449012;Normalladeeinrichtung;12.6450532;2;Sandy Lehmann;AC Steckdose Typ 2;AC Steckdose Typ 2;;;22.0;22.0;0.0;0.0;01.02.18;4651
Muldental Nord;Grimma;1160;51.2803;Schnellladeeinrichtung;12.66;2;Autobahn Tank & Rast GmbH;DC Kupplung Combo, DC CHAdeMO;AC Kupplung Typ 2;;;50.0;42.0;0.0;0.0;01.06.17;4668
Muldental Süd;Grimma;1161;51.28;Schnellladeeinrichtung;12.658;2;Autobahn Tank & Rast GmbH;DC Kupplung Combo, DC CHAdeMO;AC Kupplung Typ 2;;;50.0;42.0;0.0;0.0;17.07.17;4668
Wedniger Straße 40;Grimma;1162;51.25647;Normalladeeinrichtung;12.73762;2;envia Mitteldeutsche Energie AG;AC Steckdose Typ 2;AC Steckdose Typ 2;;;22.0;22.0;0.0;0.0;31.12.14;4668
Bahnhofstraße 5;Grimma;1163;51.22559261;Normalladeeinrichtung;12.71906755;2;Danpower-Gruppe;AC Steckdose Typ 2;AC Steckdose Typ 2;;;22.0;22.0;0.0;0.0;25.08.17;4668
Altoschatzer Str. 6;Oschatz;1164;51.297307;Normalladeeinrichtung;13.107235;2;envia Mitteldeutsche Energie AG;AC Steckdose Typ 2;AC Steckdose Typ 2;;;22.0;22.0;0.0;0.0;31.12.14;4758
Friedrich-Ebert-Straße 2C;Wurzen;1165;51.374011;Normalladeeinrichtung;12.740978;2;envia Mitteldeutsche Energie AG;AC Steckdose Typ 2;AC Steckdose Typ 2;;;22.0;22.0;0.0;0.0;31.12.14;4808
Elsterstraße 21;Elsterwerda;1166;51.458986;Normalladeeinrichtung;13.519239;2;Sparkasse Elbe-Elster;AC Steckdose Typ 2;AC Steckdose Typ 2;;;22.0;22.0;0.0;0.0;05.04.18;4910
An der B;Elsterwerda;1167;51.465758;Normalladeeinrichtung;13.499416;2;Autohaus Berger GmbH;AC Steckdose Typ 2;AC Steckdose Typ 2;;;11.0;11.0;0.0;0.0;10.08.18;4910
Bornknechtstraße 5;Halle;1168;51.48047;Normalladeeinrichtung;11.96446;2;EVH GmbH;AC Steckdose Typ 2;AC Steckdose Typ 2;;;22.0;22.0;0.0;0.0;27.03.16;6108
Hansering 5;Halle;1169;51.48111;Normalladeeinrichtung;11.9755;2;EVH GmbH;AC Steckdose Typ 2;AC Steckdose Typ 2;;;22.0;22.0;0.0;0.0;24.08.15;6108
Gustav-Anlauf-Straße;Halle;1170;51.48242;Normalladeeinrichtung;11.97272;2;EVH GmbH;AC Steckdose Typ 2;AC Steckdose Typ 2;;;22.0;22.0;0.0;0.0;30.04.15;6108
Oleariusstraße 1a;Halle;1171;51.48325;Normalladeeinrichtung;11.9668;2;EVH GmbH;AC Steckdose Typ 2;AC Steckdose Typ 2;;;22.0;22.0;0.0;0.0;02.07.15;6108
Universitätsring 10;Halle;1172;51.48736;Normalladeeinrichtung;11.96682;2;EVH GmbH;AC Steckdose Typ 2;AC Steckdose Typ 2;;;22.0;22.0;0.0;0.0;02.07.15;6108
Moritzzwinger 10;Halle;1173;51.47897;Normalladeeinrichtung;11.96796;2;EVH GmbH;AC Steckdose Typ 2;AC Steckdose Typ 2;;;22.0;22.0;0.0;0.0;03.06.15;6108
Liebenauer Straße 118;Halle;1174;51.46389;Normalladeeinrichtung;11.97896;2;EVH GmbH;AC Steckdose Typ 2;AC Steckdose Typ 2;;;22.0;22.0;0.0;0.0;30.04.15;6110
Lutherstraße 79;Halle;1175;51.466242;Normalladeeinrichtung;11.97989;2;EVH GmbH;AC Steckdose Typ 2;AC Steckdose Typ 2;;;22.0;22.0;0.0;0.0;12.03.18;6110
Pfännerhöhe 70;Halle;1176;51.471545;Normalladeeinrichtung;11.973477;4;EVH GmbH;AC Steckdose Typ 2;AC Steckdose Typ 2;AC Steckdose Typ 2;AC Steckdose Typ 2;22.0;22.0;22.0;22.0;12.03.18;6110
Freiimfelder Straße 74;Halle;1177;51.48527;Normalladeeinrichtung;11.9954;2;EVH GmbH;AC Steckdose Typ 2;AC Steckdose Typ 2;;;22.0;22.0;0.0;0.0;15.04.15;6112
Magdeburger Straße 51;Halle;1178;51.482069;Normalladeeinrichtung;11.983245;2;envia Mitteldeutsche Energie AG;AC Steckdose Typ 2;AC Steckdose Typ 2;;;22.0;22.0;0.0;0.0;31.12.14;6112
Äußere Hordorfer Straße 12;Halle;1179;51.49615;Normalladeeinrichtung;11.98559;2;EVH GmbH;AC Steckdose Typ 2;AC Steckdose Typ 2;;;22.0;22.0;0.0;0.0;08.04.16;6114
Delitzscher Straße 180;Halle;1180;51.47899;Normalladeeinrichtung;12.03491;2;EVH GmbH;AC Steckdose Typ 2;AC Steckdose Typ 2;;;22.0;22.0;0.0;0.0;03.07.15;6116
Dölauer Straße 77;Halle;1181;51.50793;Normalladeeinrichtung;11.92701;2;EVH GmbH;AC Steckdose Typ 2;AC Steckdose Typ 2;;;22.0;22.0;0.0;0.0;19.05.15;6120
Röntgenstraße 1;Halle;1182;51.50251;Normalladeeinrichtung;11.87554;2;EVH GmbH;AC Steckdose Typ 2;AC Steckdose Typ 2;;;22.0;22.0;0.0;0.0;17.07.17;6120
Walter-Hülse-Straße;Halle;1183;51.49438;Normalladeeinrichtung;11.93749;2;EVH GmbH;AC Steckdose Typ 2;AC Steckdose Typ 2;;;22.0;22.0;0.0;0.0;18.08.15;6120
Am Stadion 5;Halle;1184;51.48168;Normalladeeinrichtung;11.91592;4;EVH GmbH;AC Steckdose Typ 2;AC Steckdose Typ 2;AC Steckdose Typ 2;AC Steckdose Typ 2;22.0;22.0;22.0;22.0;22.04.15;6122
Heidestraße 37;Halle;1185;51.48771;Normalladeeinrichtung;11.90736;2;EVH GmbH;AC Steckdose Typ 2;AC Steckdose Typ 2;;;22.0;22.0;0.0;0.0;31.07.17;6126
Carl-Schurz-Straße 12;Halle;1186;51.452283;Normalladeeinrichtung;11.982898;2;EVH GmbH;AC Steckdose Typ 2;AC Steckdose Typ 2;;;22.0;22.0;0.0;0.0;16.11.16;6130
Merseburger Straße 365;Halle;1187;51.437687;Normalladeeinrichtung;11.98433;4;Stadtwerke Leipzig GmbH;AC Schuko;AC Steckdose Typ 2;AC Schuko;AC Steckdose Typ 2;3.7;22.0;3.7;22.0;01.01.14;6132
Am Busch 19;Teutschenthal;1188;51.448641;Normalladeeinrichtung;11.812557;2;envia Mitteldeutsche Energie AG;AC Steckdose Typ 2;AC Steckdose Typ 2;;;22.0;22.0;0.0;0.0;31.12.14;6179
Industriestraße 10;Kabelsketal;1189;51.443491;Normalladeeinrichtung;12.12833;2;envia Mitteldeutsche Energie AG;AC Steckdose Typ 2;AC Steckdose Typ 2;;;22.0;22.0;0.0;0.0;31.12.14;6184
Fischweg 17;Merseburg;1190;51.37319;Normalladeeinrichtung;11.96814;2;EVH GmbH;AC Steckdose Typ 2;DC Kupplung Combo, DC CHAdeMO;;;22.0;22.0;0.0;0.0;15.05.17;6217
Friedensstraße 12;Benndorf;1191;51.57043827;Normalladeeinrichtung;11.49565794;2;Danpower-Gruppe;AC Steckdose Typ 2;AC Steckdose Typ 2;;;22.0;22.0;0.0;0.0;11.08.17;6308
Lelitzer Straße 27 b;Köthen;1192;51.74935;Normalladeeinrichtung;11.951005;2;Köthen Energie GmbH;AC Steckdose Typ 2;AC Steckdose Typ 2;;;22.0;22.0;0.0;0.0;27.10.17;6366
Ludwigstraße 53;Köthen;1193;51.74923;Normalladeeinrichtung;11.97954;2;Hotel Anhalt GmbH;AC Steckdose Typ 2;AC Steckdose Typ 2;;;22.0;22.0;0.0;0.0;25.12.17;6366
Magdeburger Chaussee 11;Bernburg;1194;51.80947514;Schnellladeeinrichtung;11.72406113;2;Schubert Motors;AC Kupplung Typ 2;DC Kupplung Combo, DC CHAdeMO;;;43.0;50.0;0.0;0.0;13.12.17;6406
Karlsplatz, in der Tiefgarage;Bernburg;1195;51.79427;Normalladeeinrichtung;11.742687;1;Stadtwerke Bernburg GmbH;AC Steckdose Typ 2;;;;22.0;0.0;0.0;0.0;29.03.17;6406
Kustrenaer Straße 98;Bernburg;1196;51.782343;Normalladeeinrichtung;11.736209;2;Stadtwerke Bernburg GmbH;AC Steckdose Typ 2;AC Steckdose Typ 2;;;22.0;22.0;0.0;0.0;08.11.18;6406
Zepziger Straße / Parkplatz Hagebaumarkt;Bernburg;1197;51.781121;Normalladeeinrichtung;11.751754;2;Stadtwerke Bernburg GmbH;AC Steckdose Typ 2;AC Steckdose Typ 2;;;22.0;22.0;0.0;0.0;08.11.18;6406
Plötzetal Ost;Könnern;1198;51.655803;Schnellladeeinrichtung;11.822067;2;Autobahn Tank & Rast GmbH;DC Kupplung Combo, DC CHAdeMO;AC Kupplung Typ 2;;;50.0;42.0;0.0;0.0;15.12.16;6420
Plötzetal West;Könnern;1199;51.656181;Schnellladeeinrichtung;11.818083;2;Autobahn Tank & Rast GmbH;DC Kupplung Combo, DC CHAdeMO;AC Kupplung Typ 2;;;50.0;42.0;0.0;0.0;15.12.16;6420
Magdeburger Strasse 22a;Aschersleben;1200;51.758889;Normalladeeinrichtung;11.449863;2;Stadtwerke Aschersleben GmbH;AC Steckdose Typ 2;AC Steckdose Typ 2;;;22.0;22.0;0.0;0.0;23.06.17;6449
Düsteres Tor 2;Aschersleben;1201;51.754573;Normalladeeinrichtung;11.453623;2;Stadtwerke Aschersleben GmbH;AC Steckdose Typ 2;AC Steckdose Typ 2;;;22.0;22.0;0.0;0.0;20.09.17;6449
Oberstrasse 60;Aschersleben;1202;51.759053;Normalladeeinrichtung;11.472237;2;Stadtwerke Aschersleben GmbH;AC Steckdose Typ 2;AC Steckdose Typ 2;;;22.0;22.0;0.0;0.0;26.02.18;6449
Kopernikusstrasse 10;Aschersleben;1203;51.7632925;Normalladeeinrichtung;11.46610417;2;Stadtwerke Aschersleben GmbH;AC Steckdose Typ 2;AC Steckdose Typ 2;;;22.0;22.0;0.0;0.0;15.11.18;6449
Am Mittelfeld 5;Sangerhausen;1204;51.450773;Schnellladeeinrichtung;11.305058;2;Allego GmbH;DC Kupplung Combo;AC Kupplung Typ 2;;;50.0;43.0;0.0;0.0;28.04.17;6526
Am Mittelfeld 5;Sangerhausen;1205;51.450773;Schnellladeeinrichtung;11.305058;2;Allego GmbH;DC Kupplung Combo, DC CHAdeMO;AC Kupplung Typ 2;;;50.0;43.0;0.0;0.0;28.04.17;6526
Am Mittelfeld 5;Sangerhausen;1206;51.450773;Schnellladeeinrichtung;11.305058;2;Allego GmbH;DC Kupplung Combo;AC Kupplung Typ 2;;;53.0;22.0;0.0;0.0;28.04.17;6526
Schindelbruch 1;Südharz;1207;51.59038;Normalladeeinrichtung;11.00067;2;EVH GmbH;AC Steckdose Typ 2;AC Steckdose Typ 2;;;11.0;11.0;0.0;0.0;20.04.15;6536
Tyrahöhe 24;Südharz;1208;51.56457;Normalladeeinrichtung;10.96309;2;EVH GmbH;AC Steckdose Typ 2;AC Steckdose Typ 2;;;11.0;22.0;0.0;0.0;20.04.15;6547
Am Königstuhl 8;Artern;1209;51.367887;Normalladeeinrichtung;11.302011;2;Privatperson;AC Steckdose Typ 2;AC Steckdose Typ 2;;;22.0;22.0;0.0;0.0;25.02.18;6556
Am Königstuhl 8;Artern;1210;51.367889;Normalladeeinrichtung;11.302011;2;Privatperson;AC Steckdose Typ 2;AC Steckdose Typ 2;;;22.0;22.0;0.0;0.0;25.02.18;6556
Osterfeld Ost;Stößen;1211;51.105401;Schnellladeeinrichtung;11.957702;2;Autobahn Tank & Rast GmbH;DC Kupplung Combo, DC CHAdeMO;AC Kupplung Typ 2;;;50.0;42.0;0.0;0.0;25.11.16;6667
Osterfeld West;Stößen;1212;51.105341;Schnellladeeinrichtung;11.954837;2;Autobahn Tank & Rast GmbH;DC Kupplung Combo, DC CHAdeMO;AC Kupplung Typ 2;;;50.0;42.0;0.0;0.0;25.11.16;6667
Südring 120;Weißenfels;1213;51.192038;Normalladeeinrichtung;11.963634;2;innogy SE;AC Steckdose Typ 2;AC Steckdose Typ 2;;;22.0;22.0;0.0;0.0;05.12.12;6667
Zörbiger Str. 2;Bitterfeld-Wolfen;1214;51.626555;Normalladeeinrichtung;12.311306;2;Stadtwerke Bitterfeld-Wolfen GmbH;AC Steckdose Typ 2, AC Schuko;AC Steckdose Typ 2, AC Schuko;;;22.0;22.0;0.0;0.0;01.07.18;6749
Steinfurther Straße 46;Bitterfeld-Wolfen;1215;51.681403;Normalladeeinrichtung;12.27432;2;Stadtwerke Bitterfeld-Wolfen GmbH;AC Steckdose Typ 2, AC Schuko;AC Steckdose Typ 2, AC Schuko;;;22.0;22.0;0.0;0.0;01.07.18;6766
Bahnhofstraße 1;Bitterfeld-Wolfen;1216;51.662022;Normalladeeinrichtung;12.279107;2;Stadtwerke Bitterfeld-Wolfen GmbH;AC Steckdose Typ 2, AC Schuko;AC Steckdose Typ 2, AC Schuko;;;22.0;22.0;0.0;0.0;01.07.18;6766
Köckern Ost;Köckern;1217;51.606076;Schnellladeeinrichtung;12.185403;2;Autobahn Tank & Rast GmbH;DC Kupplung Combo, DC CHAdeMO;AC Kupplung Typ 2;;;50.0;42.0;0.0;0.0;04.04.16;6794
Köckern West;Köckern;1218;51.608724;Schnellladeeinrichtung;12.184917;2;Autobahn Tank & Rast GmbH;DC Kupplung Combo, DC CHAdeMO;AC Kupplung Typ 2;;;50.0;42.0;0.0;0.0;12.02.16;6794
Zunftstraße 12;Dessau-Roßlau;1219;51.817284;Schnellladeeinrichtung;12.218428;2;Allego GmbH;DC Kupplung Combo, DC CHAdeMO;AC Kupplung Typ 2;;;50.0;43.0;0.0;0.0;30.10.15;6847
Am Hauptbahnhof;Lutherstadt;1220;51.86766;Normalladeeinrichtung;12.66042;2;Stadtwerke Lutherstadt Wittenberg GmbH;AC Steckdose Typ 2;AC Steckdose Typ 2;;;22.0;22.0;0.0;0.0;09.12.16;6886
Wilhelm-Weber-Str. 4;Lutherstadt;1221;51.8651;Normalladeeinrichtung;12.653;2;Stadtwerke Lutherstadt Wittenberg GmbH;AC Steckdose Typ 2;AC Steckdose Typ 2;;;22.0;22.0;0.0;0.0;12.11.18;6886
Elbstraße /Wallstraße Parkplatz 3;Lutherstadt;1222;51.865;Normalladeeinrichtung;12.6428;2;Stadtwerke Lutherstadt Wittenberg GmbH;AC Steckdose Typ 2;AC Steckdose Typ 2;;;22.0;22.0;0.0;0.0;12.11.18;6886
Wallstraße / Schloßplatz 1d;Lutherstadt;1223;51.8655;Normalladeeinrichtung;12.6395;2;Stadtwerke Lutherstadt Wittenberg GmbH;AC Steckdose Typ 2;AC Steckdose Typ 2;;;22.0;22.0;0.0;0.0;12.11.18;6886
Lutherstr. 56;Lutherstadt;1224;51.871;Normalladeeinrichtung;12.6433;2;Stadtwerke Lutherstadt Wittenberg GmbH;AC Steckdose Typ 2;AC Steckdose Typ 2;;;22.0;22.0;0.0;0.0;12.11.18;6886
Dessauer Str. 9;Wittenberg;1225;51.865679;Normalladeeinrichtung;12.616745;2;Autohaus Müller Wittenberg GmbH;AC Steckdose Typ 2;AC Steckdose Typ 2;;;11.0;11.0;0.0;0.0;10.08.18;6886
Westendstr. 32;Zahna-Elster;1226;51.913268;Normalladeeinrichtung;12.780153;2;Stadtwerke Lutherstadt Wittenberg GmbH;AC Steckdose Typ 2;AC Steckdose Typ 2;;;22.0;22.0;0.0;0.0;01.09.17;6895
Am Gorrenberg 28;Jessen/Elster;1227;51.798389;Normalladeeinrichtung;12.980111;1;Autoreparatur Schöne;AC Steckdose Typ 2, AC Schuko;;;;22.0;0.0;0.0;0.0;05.12.17;6917
Am Gorrenberg 28;Jessen/Elster;1228;51.798389;Normalladeeinrichtung;12.980111;1;Autoreparatur Schöne;AC Steckdose Typ 2, AC Schuko;;;;22.0;0.0;0.0;0.0;05.12.17;6917
Kulmbacher Str.     P+R Parkplatz;Saalfeld;1229;50.649907;Normalladeeinrichtung;11.373572;2;Stadtwerke Saalfeld GmbH;AC Steckdose Typ 2, AC Schuko;AC Steckdose Typ 2, AC Schuko;;;22.0;22.0;0.0;0.0;25.11.16;7318
Feengrottenweg 2;Saalfeld/Saale;1230;50.635303;Normalladeeinrichtung;11.341301;2;Stadtwerke Saalfeld GmbH;AC Steckdose Typ 2, AC Schuko;AC Steckdose Typ 2, AC Schuko;;;22.0;22.0;0.0;0.0;30.09.17;7318
Parkstraße 8;Bad;1231;50.44941;Normalladeeinrichtung;11.642875;2;Thüringer Energie AG;AC Steckdose Typ 2;AC Steckdose Typ 2;;;22.0;22.0;0.0;0.0;20.07.17;7356
Ortsstraße 21;Oppurg;1232;50.719473;Normalladeeinrichtung;11.670448;2;PEM-energy GmbH;AC Steckdose Typ 2;AC Steckdose Typ 2;;;22.0;22.0;0.0;0.0;03.04.18;7381
Brauhausgasse 1;Pößneck;1233;50.695369;Normalladeeinrichtung;11.592339;2;Stadtwerke Energie Jena-Pößneck GmbH;AC Steckdose Typ 2, AC Schuko;AC Steckdose Typ 2, AC Schuko;;;22.0;22.0;0.0;0.0;01.04.17;7381
Bahnhofstraße 7;Bad;1234;50.683744;Normalladeeinrichtung;11.270342;2;Thüringer Energie AG;AC Steckdose Typ 2;AC Steckdose Typ 2;;;22.0;22.0;0.0;0.0;28.08.17;7422
Neue Straße 5;Gera;1235;50.879771;Normalladeeinrichtung;12.076573;2;Energieversorgung Gera GmbH;AC Steckdose Typ 2, AC Schuko;AC Steckdose Typ 2, AC Schuko;;;22.0;22.0;0.0;0.0;13.01.17;7545
Franz-Mehring-Straße;Gera;1236;50.884067;Normalladeeinrichtung;12.079147;2;Energieversorgung Gera GmbH;AC Steckdose Typ 2, AC Schuko;AC Steckdose Typ 2, AC Schuko;;;22.0;22.0;0.0;0.0;06.02.17;7545
Gagarin-Straße 85;Gera;1237;50.886444;Normalladeeinrichtung;12.084449;2;Energieversorgung Gera GmbH;AC Steckdose Typ 2;AC Steckdose Typ 2;;;22.0;22.0;0.0;0.0;23.01.18;7545
Brücken-Straße 99;Gera;1238;50.871744;Normalladeeinrichtung;12.083811;2;Energieversorgung Gera GmbH;AC Steckdose Typ 2;AC Steckdose Typ 2;;;22.0;22.0;0.0;0.0;09.02.18;7545
Naulitzer Straße 53;Gera;1239;50.87735;Normalladeeinrichtung;12.120721;2;Energieversorgung Gera GmbH;AC Steckdose Typ 2, AC Schuko;AC Steckdose Typ 2, AC Schuko;;;22.0;22.0;0.0;0.0;13.01.17;7546
Parkstraße AC;Gera;1240;50.881207;Normalladeeinrichtung;12.074507;2;Energieversorgung Gera GmbH;AC Steckdose Typ 2;AC Steckdose Typ 2;;;22.0;22.0;0.0;0.0;10.01.18;7548
Zeulsdorfer-Straße 97;Gera;1241;50.844821;Normalladeeinrichtung;12.064685;2;Energieversorgung Gera GmbH;AC Steckdose Typ 2;AC Steckdose Typ 2;;;22.0;22.0;0.0;0.0;28.12.17;7549
Kaimberger-Straße 1;Gera;1242;50.848557;Normalladeeinrichtung;12.087841;2;Energieversorgung Gera GmbH;AC Steckdose Typ 2;AC Steckdose Typ 2;;;22.0;22.0;0.0;0.0;30.11.17;7551
Otto-von-Guericke-Str. 1;Gera;1243;50.90132;Normalladeeinrichtung;12.103948;2;Cloppenburg GmbH;AC Steckdose Typ 2;AC Steckdose Typ 2;;;22.0;22.0;0.0;0.0;26.10.18;7552
Bahnhofstraße;Ronneburg;1244;50.860774;Normalladeeinrichtung;12.183;2;Thüringer Energie AG;AC Steckdose Typ 2;AC Steckdose Typ 2;;;22.0;22.0;0.0;0.0;26.10.17;7580
Am Sommerbad;Bad;1245;50.933874;Normalladeeinrichtung;12.010706;2;Thüringer Energie AG;AC Steckdose Typ 2;AC Steckdose Typ 2;;;22.0;22.0;0.0;0.0;25.10.17;7586
Walther-Rathenau-Str.  3;Eisenberg;1246;50.969732;Normalladeeinrichtung;11.897986;2;Stadtwerke Eisenberg Energie GmbH;AC Steckdose Typ 2, AC Schuko;AC Steckdose Typ 2;;;11.0;11.0;0.0;0.0;09.03.17;7607
Burgstraße 7;Eisenberg;1247;50.966455;Normalladeeinrichtung;11.92447;2;Stadtwerke Eisenberg Energie GmbH;AC Steckdose Typ 2;AC Steckdose Typ 2;;;11.0;11.0;0.0;0.0;17.11.17;7607
Am Markt 26;Bürgel;1248;50.942151;Normalladeeinrichtung;11.753705;2;Stadtwerke Energie Jena-Pößneck GmbH;AC Steckdose Typ 2, AC Schuko;AC Steckdose Typ 2, AC Schuko;;;22.0;22.0;0.0;0.0;01.06.18;7616
Kraftsdorfer Straße 1;Hermsdorf;1249;50.889776;Schnellladeeinrichtung;11.872676;2;Allego GmbH;DC Kupplung Combo, DC CHAdeMO;AC Kupplung Typ 2;;;50.0;43.0;0.0;0.0;29.10.15;7629
Am Alten Versuchsfeld 1;Hermsdorf;1250;50.90064462;Normalladeeinrichtung;11.85323601;2;Stadtwerke Energie Jena-Pößneck GmbH;AC Steckdose Typ 2, AC Schuko;AC Steckdose Typ 2, AC Schuko;;;22.0;22.0;0.0;0.0;01.08.18;7629
Hermsdorfer Kreuz West;Schleifreisen;1251;50.87499;Schnellladeeinrichtung;11.846279;2;Autobahn Tank & Rast GmbH;DC Kupplung Combo, DC CHAdeMO;AC Kupplung Typ 2;;;50.0;42.0;0.0;0.0;29.07.16;7629
Jenaische Straße;Bad;1252;50.916369;Normalladeeinrichtung;11.86024;2;Thüringer Energie AG;AC Steckdose Typ 2;AC Steckdose Typ 2;;;22.0;22.0;0.0;0.0;26.10.17;7639
Teufelstal Nord;Bollberg;1253;50.877326;Schnellladeeinrichtung;11.808342;2;Autobahn Tank & Rast GmbH;DC Kupplung Combo, DC CHAdeMO;AC Kupplung Typ 2;;;50.0;42.0;0.0;0.0;23.12.16;7646
Amtsplatz;Stadtroda;1254;50.857739;Normalladeeinrichtung;11.726866;2;Stadtwerke Stadtroda GmbH;AC Steckdose Typ 2, AC Schuko;AC Steckdose Typ 2, AC Schuko;;;22.0;22.0;0.0;0.0;11.04.17;7646
Breiter Weg 58;Stadtroda;1255;50.865333;Normalladeeinrichtung;11.738843;2;Stadtwerke Stadtroda GmbH;AC Steckdose Typ 2, AC Schuko;AC Steckdose Typ 2, AC Schuko;;;22.0;22.0;0.0;0.0;16.10.17;7646
Breiter Weg 58;Stadtroda;1256;50.858353;Normalladeeinrichtung;11.73671;2;Stadtwerke Stadtroda GmbH;AC Steckdose Typ 2;AC Steckdose Typ 2;;;22.0;22.0;0.0;0.0;16.10.17;7646
Am Bahnhof;Stadtroda;1257;50.885107;Normalladeeinrichtung;11.750476;2;Stadtwerke Stadtroda GmbH;AC Steckdose Typ 2;AC Steckdose Typ 2;;;22.0;22.0;0.0;0.0;16.10.17;7646
August-Bebel-Straße 5;Stadtroda;1258;50.859878;Normalladeeinrichtung;11.736912;2;Stadtwerke Stadtroda GmbH;AC Steckdose Typ 2;AC Steckdose Typ 2;;;22.0;22.0;0.0;0.0;30.07.18;7646
Keßlerstraße 28;Jena;1259;50.89954;Normalladeeinrichtung;11.5887;2;Stadtwerke Energie Jena-Pößneck GmbH;AC Steckdose Typ 2, AC Schuko;AC Steckdose Typ 2, AC Schuko;;;22.0;22.0;0.0;0.0;01.01.14;7743
Stockholmer Str. 9;Jena;1260;50.87816;Normalladeeinrichtung;11.61594;2;Stadtwerke Energie Jena-Pößneck GmbH;AC Steckdose Typ 2, AC Schuko;AC Steckdose Typ 2, AC Schuko;;;22.0;22.0;0.0;0.0;01.01.15;7743
Brückenstraße 6;Jena;1261;50.956784;Normalladeeinrichtung;11.619419;1;Stadtwerke Energie Jena-Pößneck GmbH;AC Steckdose Typ 2;;;;22.0;0.0;0.0;0.0;01.03.17;7743
Brückenstraße 6;Jena;1262;50.956784;Normalladeeinrichtung;11.619419;1;Stadtwerke Energie Jena-Pößneck GmbH;AC Steckdose Typ 2;;;;22.0;0.0;0.0;0.0;01.03.17;7743
Knebelstraße 10;Jena;1263;50.925541;Normalladeeinrichtung;11.586439;2;Stadtwerke Energie Jena-Pößneck GmbH;AC Steckdose Typ 2, AC Schuko;AC Steckdose Typ 2, AC Schuko;;;22.0;22.0;0.0;0.0;01.03.13;7743
Knebelstraße 10;Jena;1264;50.92523318;Normalladeeinrichtung;11.5865735;2;Stadtwerke Energie Jena-Pößneck GmbH;AC Steckdose Typ 2, AC Schuko;AC Steckdose Typ 2, AC Schuko;;;22.0;22.0;0.0;0.0;01.07.15;7743
Zeitzer Straße 6;Jena;1265;50.945745;Normalladeeinrichtung;11.601545;4;job Jenaer Objektmanagement- und Betriebsgesellschaft mbH;AC Steckdose Typ 2, AC Schuko;AC Steckdose Typ 2, AC Schuko;AC Steckdose Typ 2, AC Schuko;AC Steckdose Typ 2, AC Schuko;22.0;22.0;22.0;22.0;14.03.16;7743
Eichplatz;Jena;1266;50.928344;Normalladeeinrichtung;11.58534;4;Stadtwerke Energie Jena-Pößneck GmbH;AC Steckdose Typ 2, AC Schuko;AC Steckdose Typ 2, AC Schuko;AC Steckdose Typ 2, AC Schuko;AC Steckdose Typ 2, AC Schuko;22.0;22.0;22.0;22.0;01.01.16;7745
Rudolstädter Straße 39;Jena;1267;50.896564;Normalladeeinrichtung;11.58306;2;Stadtwerke Energie Jena-Pößneck GmbH;AC Steckdose Typ 2, AC Schuko;AC Steckdose Typ 2, AC Schuko;;;11.0;11.0;0.0;0.0;01.06.11;7745
Damaschkeweg 65;Jena;1268;50.899872;Normalladeeinrichtung;11.58543;1;Stadtwerke Energie Jena-Pößneck GmbH;AC Steckdose Typ 2;;;;22.0;0.0;0.0;0.0;01.03.17;7745
Keßlerstraße 29;Jena;1269;50.695369;Schnellladeeinrichtung;11.5892339;2;Stadtwerke Energie Jena-Pößneck GmbH;AC Kupplung Typ 2;DC Kupplung Combo, DC CHAdeMO;;;43.0;50.0;0.0;0.0;06.10.16;7745
Friedrich-Schelling-Straße 0;Jena;1270;50.928874;Normalladeeinrichtung;11.570212;2;job Jenaer Objektmanagement- und Betriebsgesellschaft mbH;AC Steckdose Typ 2, AC Schuko;AC Steckdose Typ 2, AC Schuko;;;22.0;22.0;0.0;0.0;01.01.17;7745
Friedrich-Schelling-Straße 15;Jena;1271;50.92784735;Normalladeeinrichtung;11.56744748;2;job Jenaer Objektmanagement- und Betriebsgesellschaft mbH;AC Steckdose Typ 2, AC Schuko;AC Steckdose Typ 2, AC Schuko;;;22.0;22.0;0.0;0.0;01.01.17;7745
Göschwitzer Str. 2;Jena;1272;50.897593;Normalladeeinrichtung;11.59386;4;Autohaus Fiebig GmbH;AC Steckdose Typ 2;AC Steckdose Typ 2;AC Steckdose Typ 2;AC Steckdose Typ 2;22.0;22.0;22.0;22.0;13.10.18;7745
Binswangerstraße 2;Jena;1273;50.88060737;Normalladeeinrichtung;11.60599388;2;job Jenaer Objektmanagement- und Betriebsgesellschaft mbH;AC Steckdose Typ 2, AC Schuko;AC Steckdose Typ 2, AC Schuko;;;22.0;22.0;0.0;0.0;01.10.18;7747
Markt;Kahla;1274;50.802927;Normalladeeinrichtung;11.587972;2;Thüringer Energie AG;AC Steckdose Typ 2;AC Steckdose Typ 2;;;22.0;22.0;0.0;0.0;27.10.17;7768
Dorfstraße 105;Seitenroda;1275;50.80418;Normalladeeinrichtung;11.61156;2;Stadtwerke Energie Jena-Pößneck GmbH;AC Steckdose Typ 2, AC Schuko;AC Steckdose Typ 2, AC Schuko;;;22.0;22.0;0.0;0.0;01.01.14;7768
Schießplatz 1;Camburg;1276;51.05449524;Normalladeeinrichtung;11.70907411;2;Stadtwerke Energie Jena-Pößneck GmbH;AC Steckdose Typ 2, AC Schuko;AC Steckdose Typ 2, AC Schuko;;;22.0;22.0;0.0;0.0;01.07.18;7774
Mühlstraße;Neustadt;1277;50.738882;Normalladeeinrichtung;11.744593;2;Stadtwerke Neustadt an der Orla GmbH;AC Steckdose Typ 2, AC Kupplung Typ 2;AC Steckdose Typ 2, AC Kupplung Typ 2;;;22.0;22.0;0.0;0.0;02.04.18;7806
Alte Neustädter Straße 4;Triptis;1278;50.7365;Normalladeeinrichtung;11.86416;2;Thüringer Energie AG;AC Steckdose Typ 2;AC Steckdose Typ 2;;;22.0;22.0;0.0;0.0;27.10.17;7819
Parkplatz Burgplatz;Saalburg-Ebersdorf;1279;50.500392;Normalladeeinrichtung;11.728842;2;Thüringer Energie AG;AC Steckdose Typ 2;AC Steckdose Typ 2;;;22.0;22.0;0.0;0.0;26.10.17;7929
Aumaische Straße 31;Zeulenroda;1280;50.6521121;Normalladeeinrichtung;11.9776228;2;Energiewerke Zeulenroda GmbH;AC Steckdose Typ 2;AC Schuko;;;11.0;3.7;0.0;0.0;31.03.15;7937
Parkplatz Bruno Bergner Straße / Neustadtring;Greiz;1281;50.656111;Normalladeeinrichtung;12.195;2;Energieversorgung Greiz GmbH;AC Kupplung Typ 2;AC Steckdose Typ 2;;;14.0;3.7;0.0;0.0;18.12.14;7973
Geraer Str. 4;Greiz;1282;50.670911;Normalladeeinrichtung;12.154837;2;Autohaus Kühnert GmbH & Co. KG;AC Steckdose Typ 2;AC Steckdose Typ 2;;;11.0;11.0;0.0;0.0;23.09.18;7973
Bahnhofstraße 5;;1283;50.71841;Normalladeeinrichtung;12.48658;2;Zwickauer Energieversorgung GmbH;AC Steckdose Typ 2;AC Steckdose Typ 2;;;22.0;22.0;0.0;0.0;25.07.18;8056
Dr.-Friedrichs-Ring 9z;;1284;50.71475;Normalladeeinrichtung;12.49561111;2;Zwickauer Energieversorgung GmbH;AC Steckdose Typ 2;AC Steckdose Typ 2;;;22.0;22.0;0.0;0.0;01.11.18;8056
Moritzstraße;Zwickau;1285;50.72362536;Normalladeeinrichtung;12.49456859;2;Zwickauer Energieversorgung GmbH;AC Steckdose Typ 2;AC Steckdose Typ 2;;;22.0;22.0;0.0;0.0;24.06.14;8056
Kleine Biergasse;Zwickau;1286;50.721965;Normalladeeinrichtung;12.500755;2;Zwickauer Energieversorgung GmbH;AC Steckdose Typ 2;AC Steckdose Typ 2;;;22.0;22.0;0.0;0.0;01.11.17;8056
Crimmitschauer Straße 16zz;Zwickau;1287;50.72312;Normalladeeinrichtung;12.48739;2;Zwickauer Energieversorgung GmbH;AC Steckdose Typ 2;AC Steckdose Typ 2;;;22.0;22.0;0.0;0.0;22.07.18;8056
Äußere Schneeberger Straße 59z;Zwickau;1288;50.7074343;Schnellladeeinrichtung;12.49941051;2;Zwickauer Energieversorgung GmbH;DC Kupplung Combo, DC CHAdeMO;AC Kupplung Typ 2;;;45.0;38.0;0.0;0.0;01.10.18;8056
Georgenstr. 6;Zwickau;1289;50.718932;Normalladeeinrichtung;12.49008;2;eins energie in sachsen GmbH & Co. KG;AC Steckdose Typ 2, AC Schuko;AC Steckdose Typ 2, AC Schuko;;;22.0;22.0;0.0;0.0;01.05.15;8056
Audistraße 12;Zwickau;1290;50.73317;Normalladeeinrichtung;12.48447;1;Zwickauer Energieversorgung GmbH;AC Steckdose Typ 2;;;;11.0;0.0;0.0;0.0;16.09.14;8058
Audistraße 12;Zwickau;1291;50.73317;Normalladeeinrichtung;12.48447;1;Zwickauer Energieversorgung GmbH;AC Steckdose Typ 2;;;;11.0;0.0;0.0;0.0;14.09.14;8058
Arno-Schmidt-Straße 28;Wildenfels;1292;50.681519;Schnellladeeinrichtung;15.592092;2;envia Mitteldeutsche Energie AG;AC Kupplung Typ 2;DC Kupplung Combo, DC CHAdeMO;;;50.0;44.0;0.0;0.0;26.09.17;8134
Werkstraße 7;Auerbach;1293;50.521086;Normalladeeinrichtung;12.379935;1;Autohaus Strobel OHG;AC Steckdose Typ 2;;;;3.7;0.0;0.0;0.0;24.07.14;8209
Nicolaistraße 21;Auerbach/Vogtland;1294;50.508963;Normalladeeinrichtung;12.399298;2;envia Mitteldeutsche Energie AG;AC Steckdose Typ 2;AC Steckdose Typ 2;;;22.0;22.0;0.0;0.0;31.12.14;8209
Mittlerer Ring 1;Treuen;1295;50.549055;Schnellladeeinrichtung;12.286318;2;envia Mitteldeutsche Energie AG;AC Kupplung Typ 2;DC Kupplung Combo, DC CHAdeMO;;;50.0;44.0;0.0;0.0;26.09.17;8233
Am Märzenberg 1A;Breitenbrunn;1296;50.471973;Normalladeeinrichtung;12.706977;2;eins energie in sachsen GmbH & Co. KG;AC Steckdose Typ 2;AC Steckdose Typ 2;;;11.0;11.0;0.0;0.0;14.09.17;8359
Seiferitzer Allee 1;Meerane;1297;50.84;Schnellladeeinrichtung;12.45;2;Kaufland Vertrieb BETA GmbH & Co. KG;AC Kupplung Typ 2;DC Kupplung Combo, DC CHAdeMO;;;43.0;50.0;0.0;0.0;04.10.17;8393
Erich-Mühsam-Str. 2;Reichenbach;1298;50.633325;Normalladeeinrichtung;12.315819;2;Stadtwerke Reichenbach/Vogtland GmbH;AC Steckdose Typ 2;AC Steckdose Typ 2;;;22.0;22.0;0.0;0.0;04.10.18;8468
Zwickauer Str. 265;Reichenbach;1299;50.638618;Normalladeeinrichtung;12.324074;2;Stadtwerke Reichenbach/Vogtland GmbH;AC Steckdose Typ 2;AC Steckdose Typ 2;;;22.0;22.0;0.0;0.0;04.10.18;8468
Solbrigplatz 7;Reichenbach;1300;50.623738;Normalladeeinrichtung;12.299592;2;Stadtwerke Reichenbach/Vogtland GmbH;AC Steckdose Typ 2;AC Steckdose Typ 2;;;22.0;22.0;0.0;0.0;12.11.18;8468
Pausaer Str. 190;Plauen;1301;50.52079;Normalladeeinrichtung;12.114587;2;Autohaus Strauß GmbH;AC Steckdose Typ 2;AC Steckdose Typ 2;;;11.0;11.0;0.0;0.0;27.09.18;8525
Dürerstraße 28;Plauen;1302;50.489273;Normalladeeinrichtung;12.130921;2;Stadtwerke - Strom Plauen GmbH & Co. KG;AC Steckdose Typ 2;AC Steckdose Typ 2;;;22.0;22.0;0.0;0.0;26.10.18;8527
Plauensche Str. 161;Oelsnitz/V.;1303;50.4321;Normalladeeinrichtung;12.16631;2;Stadtwerke OELSNITZ/V. GmbH;AC Steckdose Typ 2;AC Steckdose Typ 2;;;22.0;22.0;0.0;0.0;10.10.18;8606
Fabrikstr. 1;Oelsnitz/V.;1304;50.41197;Normalladeeinrichtung;12.17346;2;Stadtwerke OELSNITZ/V. GmbH;AC Steckdose Typ 2;AC Steckdose Typ 2;;;22.0;22.0;0.0;0.0;10.10.18;8606
Moritzstr. 20;Chemnitz;1305;50.831645;Normalladeeinrichtung;12.924229;2;eins energie in sachsen GmbH & Co. KG;AC Steckdose Typ 2, AC Schuko;AC Steckdose Typ 2, AC Schuko;;;22.0;22.0;0.0;0.0;01.07.14;9111
Theaterstr. 7;Chemnitz;1306;50.835223;Normalladeeinrichtung;12.920058;1;eins energie in sachsen GmbH & Co. KG;AC Steckdose Typ 2, AC Schuko;;;;22.0;0.0;0.0;0.0;01.12.14;9111
Am Rathaus 1;Chemnitz;1307;50.831822;Normalladeeinrichtung;12.92141;1;eins energie in sachsen GmbH & Co. KG;AC Steckdose Typ 2, AC Schuko;;;;22.0;0.0;0.0;0.0;01.03.15;9111
Straße der Nationen 25;Chemnitz;1308;50.83669;Normalladeeinrichtung;12.92504;2;eins energie in sachsen GmbH & Co. KG;AC Steckdose Typ 2, AC Schuko;AC Steckdose Typ 2, AC Schuko;;;22.0;22.0;0.0;0.0;01.09.15;9111
Georgstr. 13;Chemnitz;1309;50.841012;Normalladeeinrichtung;12.922595;2;eins energie in sachsen GmbH & Co. KG;AC Steckdose Typ 2, AC Schuko;AC Steckdose Typ 2, AC Schuko;;;22.0;22.0;0.0;0.0;01.09.15;9111
Zöllnerplatz 1;Chemnitz;1310;50.845162;Normalladeeinrichtung;12.925941;2;eins energie in sachsen GmbH & Co. KG;AC Steckdose Typ 2, AC Schuko;AC Steckdose Typ 2, AC Schuko;;;22.0;22.0;0.0;0.0;01.02.16;9111
Straße der Nationen 140;Chemnitz;1311;50.849506;Normalladeeinrichtung;12.933407;2;eins energie in sachsen GmbH & Co. KG;AC Steckdose Typ 2, AC Schuko;AC Steckdose Typ 2, AC Schuko;;;22.0;22.0;0.0;0.0;01.10.13;9113
Schönherrstr. 8;Chemnitz;1312;50.850518;Normalladeeinrichtung;12.921121;2;eins energie in sachsen GmbH & Co. KG;AC Steckdose Typ 2, AC Schuko;AC Steckdose Typ 2, AC Schuko;;;22.0;22.0;0.0;0.0;18.07.17;9113
Further Str. 41;Chemnitz;1313;50.849406;Normalladeeinrichtung;12.926375;2;eins energie in sachsen GmbH & Co. KG;AC Steckdose Typ 2;AC Steckdose Typ 2;;;22.0;22.0;0.0;0.0;18.01.18;9113
Chemnitztalstraße 13;Chemnitz;1314;50.85787;Normalladeeinrichtung;12.92689;2;envia Mitteldeutsche Energie AG;AC Steckdose Typ 2;AC Steckdose Typ 2;;;22.0;22.0;0.0;0.0;31.12.14;9114
Blankenburgstr. 2;Chemnitz;1315;50.854882;Normalladeeinrichtung;12.919291;1;eins energie in sachsen GmbH & Co. KG;AC Steckdose Typ 2;;;;11.0;0.0;0.0;0.0;01.04.16;9114
Neefestr. 88;Chemnitz;1316;50.819402;Normalladeeinrichtung;12.887048;2;eins energie in sachsen GmbH & Co. KG;AC Steckdose Typ 2, AC Schuko;AC Steckdose Typ 2, AC Schuko;;;22.0;22.0;0.0;0.0;01.07.14;9116
Messeplatz 1;Chemnitz;1317;50.817782;Normalladeeinrichtung;12.882904;2;eins energie in sachsen GmbH & Co. KG;AC Steckdose Typ 2, AC Schuko;AC Steckdose Typ 2, AC Schuko;;;22.0;22.0;0.0;0.0;01.03.15;9116
Limbacher Str. 195;Chemnitz;1318;50.832081;Normalladeeinrichtung;12.87376;4;eins energie in sachsen GmbH & Co. KG;AC Steckdose Typ 2, AC Schuko;AC Steckdose Typ 2, AC Schuko;AC Steckdose Typ 2, AC Schuko;AC Steckdose Typ 2, AC Schuko;22.0;22.0;22.0;22.0;01.02.16;9116
Alfons-Pech-Straße 21;Chemnitz;1319;50.84152;Normalladeeinrichtung;12.88175;2;Chemnitzer Siedlungsgemeinschaft eG;AC Steckdose Typ 2, AC Schuko;AC Steckdose Typ 2, AC Schuko;;;22.0;22.0;0.0;0.0;01.02.18;9116
Alfons-Pech-Straße 21;Chemnitz;1320;50.84152;Normalladeeinrichtung;12.88175;2;Chemnitzer Siedlungsgemeinschaft eG;AC Steckdose Typ 2, AC Schuko;AC Steckdose Typ 2, AC Schuko;;;22.0;22.0;0.0;0.0;01.02.18;9116
Carl-von-Bach-Straße 8a;Chemnitz;1321;50.8027;Normalladeeinrichtung;12.8522;4;HEOS Object GmbH & Co. KG;AC Steckdose Typ 2, AC Schuko;AC Steckdose Typ 2, AC Schuko;AC Schuko;AC Schuko;22.0;22.0;3.0;3.0;31.05.18;9116
Carl-von-Bach-Straße 8a;Chemnitz;1322;50.8027;Schnellladeeinrichtung;12.8522;2;HEOS Object GmbH & Co. KG;DC Kupplung Combo, DC CHAdeMO;AC Kupplung Typ 2;;;50.0;43.0;0.0;0.0;04.06.18;9116
Carl-von-Bach-Straße 8a;Chemnitz;1323;50.8027;Normalladeeinrichtung;12.8522;4;HEOS Object GmbH & Co. KG;AC Steckdose Typ 2, AC Schuko;AC Steckdose Typ 2, AC Schuko;AC Schuko;AC Schuko;22.0;22.0;3.0;3.0;31.05.18;9116
Curiestrasse 3a;Chemnitz;1324;50.81453;Normalladeeinrichtung;12.84341;2;EEG Curiestrasse GbR;AC Steckdose Typ 2;AC Steckdose Typ 2;;;11.0;11.0;0.0;0.0;01.03.17;9117
Werner-Seelenbinder-Str. 11b;Chemnitz;1325;50.805651;Normalladeeinrichtung;12.921763;2;eins energie in sachsen GmbH & Co. KG;AC Steckdose Typ 2, AC Schuko;AC Steckdose Typ 2, AC Schuko;;;22.0;22.0;0.0;0.0;01.09.15;9120
Paul-Gruner-Str. 56;Chemnitz;1326;50.809355;Normalladeeinrichtung;12.910055;2;eins energie in sachsen GmbH & Co. KG;AC Steckdose Typ 2, AC Schuko;AC Steckdose Typ 2, AC Schuko;;;22.0;22.0;0.0;0.0;01.07.17;9120
Carl-Bobach-Str. 2-8;Chemnitz;1327;50.805173;Normalladeeinrichtung;12.890133;2;eins energie in sachsen GmbH & Co. KG;AC Steckdose Typ 2, AC Schuko;AC Steckdose Typ 2, AC Schuko;;;22.0;22.0;0.0;0.0;06.10.17;9120
F.-O.-Schimmel-Str. 31;Chemnitz;1328;50.804918;Normalladeeinrichtung;12.923611;2;Autohaus Melkus GmbH;AC Steckdose Typ 2;AC Steckdose Typ 2;;;22.0;22.0;0.0;0.0;08.11.18;9120
Alfred-Neubert-Str. 17;Chemnitz;1329;50.786366;Normalladeeinrichtung;12.902672;2;eins energie in sachsen GmbH & Co. KG;AC Steckdose Typ 2, AC Schuko;AC Steckdose Typ 2, AC Schuko;;;22.0;22.0;0.0;0.0;21.11.17;9123
Chemnitzer Straße 65;Chemnitz;1330;50.783715;Schnellladeeinrichtung;12.895356;2;Kaufland Vertrieb Berlin GmbH & Co. KG;AC Kupplung Typ 2;DC Kupplung Combo, DC CHAdeMO;;;43.0;50.0;0.0;0.0;26.05.17;9123
Eislebener Straße 11;Chemnitz;1331;50.809491;Normalladeeinrichtung;12.950367;2;Chemnitzer Siedlungsgemeinschaft eG;AC Steckdose Typ 2, AC Schuko;AC Steckdose Typ 2, AC Schuko;;;22.0;22.0;0.0;0.0;16.11.18;9126
Gellertstr. 25;Chemnitz;1332;50.841546;Normalladeeinrichtung;12.943657;4;eins energie in sachsen GmbH & Co. KG;AC Steckdose Typ 2, AC Schuko;AC Steckdose Typ 2, AC Schuko;AC Steckdose Typ 2, AC Schuko;AC Steckdose Typ 2, AC Schuko;22.0;22.0;22.0;22.0;01.04.16;9130
Hilbersdorfer Str. 1;Chemnitz;1333;50.845823;Normalladeeinrichtung;12.936077;2;eins energie in sachsen GmbH & Co. KG;AC Steckdose Typ 2;AC Steckdose Typ 2;;;22.0;22.0;0.0;0.0;18.01.18;9131
Johann-Esche-Straße 26;Limbach-Oberfrohna;1334;50.847091;Normalladeeinrichtung;12.786525;2;envia Mitteldeutsche Energie AG;AC Steckdose Typ 2;AC Steckdose Typ 2;;;22.0;22.0;0.0;0.0;31.12.14;9212
Am Stadtpark 22;Limbach-Oberfrohna;1335;50.85222015;Normalladeeinrichtung;12.75948769;2;Danpower-Gruppe;AC Steckdose Typ 2;AC Steckdose Typ 2;;;22.0;22.0;0.0;0.0;11.08.17;9212
Zauberweg 13;Chemnitz;1336;50.81638;Normalladeeinrichtung;12.79515;1;Solarbetrieb Regina und Bernhard Herrmann (GbR);AC Steckdose Typ 2;;;;22.0;0.0;0.0;0.0;01.05.16;9224
Rabensteiner Wald Süd;Chemnitz/Grüna;1337;50.821584;Schnellladeeinrichtung;12.765012;2;Autobahn Tank & Rast GmbH;DC Kupplung Combo, DC CHAdeMO;AC Kupplung Typ 2;;;50.0;42.0;0.0;0.0;08.08.17;9224
Auerswalder Blick Nord;Lichtenau;1338;50.892978;Schnellladeeinrichtung;12.938842;2;Autobahn Tank & Rast GmbH;DC Kupplung Combo, DC CHAdeMO;AC Kupplung Typ 2;;;50.0;42.0;0.0;0.0;21.04.17;9244
Auer Str.3;Stollberg;1339;50.711635;Normalladeeinrichtung;12.761841;1;Autohaus Nobis e.K.;AC Steckdose Typ 2;;;;3.7;0.0;0.0;0.0;15.05.14;9366
Neumarkt 17;Zschopau;1340;50.747848;Normalladeeinrichtung;13.069798;2;envia Mitteldeutsche Energie AG;AC Steckdose Typ 2;AC Steckdose Typ 2;;;22.0;22.0;0.0;0.0;31.12.14;9405
Ernst-Grohmann-Straße (Festplatz);Gelenau;1341;50.713253;Normalladeeinrichtung;12.980636;1;Bürger Energie Drebach eG;AC Steckdose Typ 2;;;;22.0;0.0;0.0;0.0;07.11.18;9423
Markt 3;Ehrenfriedersdorf;1342;50.645833;Normalladeeinrichtung;12.970277;1;Schmutzler Immobilien GbR;AC Steckdose Typ 2;;;;22.0;0.0;0.0;0.0;02.11.16;9427
Neumarkt 15;Ehrenfriedersdorf;1343;50.64478;Normalladeeinrichtung;12.967971;2;eins energie in sachsen GmbH & Co. KG;AC Steckdose Typ 2, AC Schuko;AC Steckdose Typ 2, AC Schuko;;;22.0;22.0;0.0;0.0;13.06.17;9427
Bahnhofstraße 45B;Drebach;1344;50.702934;Normalladeeinrichtung;13.056297;1;Bürger Energie Drebach eG;AC Steckdose Typ 2;;;;22.0;0.0;0.0;0.0;06.04.16;9430
Markt 4;Annaberg-Buchholz;1345;50.579947;Normalladeeinrichtung;13.002455;1;Stadtwerke Annaberg Buchholz Energie AG;AC Steckdose Typ 2;;;;22.0;0.0;0.0;0.0;31.03.17;9456
Robert-Schumann-Straße 1;Annaberg-Buchholz;1346;50.58601;Normalladeeinrichtung;13.014485;2;Stadtwerke Annaberg Buchholz Energie AG;AC Steckdose Typ 2;AC Steckdose Typ 2;;;22.0;22.0;0.0;0.0;10.06.17;9456
Lousie-Otto-Peters-Straße 1;Annaberg-Buchholz;1347;50.579405;Normalladeeinrichtung;12.982081;2;Stadtwerke Annaberg Buchholz Energie AG;AC Steckdose Typ 2;AC Steckdose Typ 2;;;22.0;22.0;0.0;0.0;15.08.18;9456
Karlsbader Str. 3;Oberwiesenthal;1348;50.41929;Normalladeeinrichtung;12.96897;2;envia Mitteldeutsche Energie AG;AC Steckdose Typ 2;AC Steckdose Typ 2;;;22.0;22.0;0.0;0.0;31.12.14;9484
Am Kurpark 1;Thermalbad;1349;50.619953;Normalladeeinrichtung;13.045588;1;Bürger Energie Drebach eG;AC Steckdose Typ 2;;;;22.0;0.0;0.0;0.0;14.11.16;9488
Walther-Mehnert-Straße 3;Marienberg;1350;50.652707;Normalladeeinrichtung;13.1592;2;Energieversorgung Marienberg GmbH;AC Steckdose Typ 2;AC Steckdose Typ 2;;;22.0;22.0;0.0;0.0;30.11.16;9496
In der Hütte 8a;Olbernhau;1351;50.6492;Normalladeeinrichtung;13.3677;2;Stadtwerke Olbernhau GmbH;AC Steckdose Typ 2;AC Steckdose Typ 2;;;22.0;22.0;0.0;0.0;10.07.18;9526
Waldstraße 6 A;Grünhainichen;1352;50.764998;Normalladeeinrichtung;13.14947;1;Solar-Technik-Enzmann Heike und Holger Enzmann GbR;AC Kupplung Typ 2;;;;22.0;0.0;0.0;0.0;25.02.16;9579
Am Bahnhof 3;Freiberg;1353;50.908;Normalladeeinrichtung;13.436;2;Stadtwerke Freiberg AG;AC Steckdose Typ 2;AC Steckdose Typ 2;;;22.0;22.0;0.0;0.0;20.07.16;9599
Fischerstraße 17;Freiberg;1354;50.925379;Normalladeeinrichtung;13.328881;1;Stadtwerke Freiberg AG;AC Steckdose Typ 2;;;;22.0;0.0;0.0;0.0;21.09.16;9599
Sonnenstraße 7;Mittweida;1355;50.994903;Schnellladeeinrichtung;12.965836;2;Gamma Warenhandel GmbH & Co. KG;AC Kupplung Typ 2;DC Kupplung Combo, DC CHAdeMO;;;43.0;50.0;0.0;0.0;13.09.18;9648
Markt 15;Frankenberg;1356;50.91211;Normalladeeinrichtung;13.032813;2;envia Mitteldeutsche Energie AG;AC Steckdose Typ 2;AC Steckdose Typ 2;;;22.0;22.0;0.0;0.0;31.12.14;9669
Boyenstr. 23;Berlin;1357;52.535955;Normalladeeinrichtung;13.368842;2;innogy SE;AC Steckdose Typ 2;AC Steckdose Typ 2;;;22.0;22.0;0.0;0.0;14.07.09;10115
Anklamer Str. 8;Berlin;1358;52.534398;Normalladeeinrichtung;13.395824;2;innogy SE;AC Steckdose Typ 2;AC Steckdose Typ 2;;;22.0;22.0;0.0;0.0;14.07.09;10115
Torstraße 165;Berlin;1359;52.529125;Normalladeeinrichtung;13.395841;2;innogy SE;AC Steckdose Typ 2;AC Steckdose Typ 2;;;22.0;22.0;0.0;0.0;14.04.10;10115
Gartenstraße 13;Berlin;1360;52.530483;Normalladeeinrichtung;13.39135;2;innogy SE;AC Steckdose Typ 2;AC Steckdose Typ 2;;;22.0;22.0;0.0;0.0;14.04.10;10115
Habersaathstr. 34;Berlin;1361;52.531847;Normalladeeinrichtung;13.37762;2;Allego GmbH;AC Steckdose Typ 2;AC Steckdose Typ 2;;;11.0;11.0;0.0;0.0;21.12.16;10115
Kieler Str. 5;Berlin;1362;52.5343;Normalladeeinrichtung;13.370317;2;Allego GmbH;AC Steckdose Typ 2;AC Steckdose Typ 2;;;11.0;11.0;0.0;0.0;26.01.17;10115
Borsigstr. 1;Berlin;1363;52.528091;Normalladeeinrichtung;13.391272;2;Allego GmbH;AC Steckdose Typ 2;AC Steckdose Typ 2;;;11.0;11.0;0.0;0.0;13.03.17;10115
Anklamer Str. 12;Berlin;1364;52.534702;Normalladeeinrichtung;13.397123;2;Allego GmbH;AC Steckdose Typ 2;AC Steckdose Typ 2;;;11.0;11.0;0.0;0.0;21.03.17;10115
Schumannstr. 6;Berlin;1365;52.523719;Normalladeeinrichtung;13.380581;2;innogy SE;AC Steckdose Typ 2;AC Steckdose Typ 2;;;22.0;22.0;0.0;0.0;14.07.09;10117
Planckstr. 4;Berlin;1366;52.51897;Normalladeeinrichtung;13.390248;2;innogy SE;AC Steckdose Typ 2;AC Steckdose Typ 2;;;22.0;22.0;0.0;0.0;17.07.09;10117
Luisenstr. 31;Berlin;1367;52.51983;Normalladeeinrichtung;13.38025;2;innogy SE;AC Steckdose Typ 2;AC Steckdose Typ 2;;;22.0;22.0;0.0;0.0;17.07.09;10117
Behrensstraße 28;Berlin;1368;52.515846;Normalladeeinrichtung;13.389922;2;innogy SE;AC Steckdose Typ 2;AC Steckdose Typ 2;;;22.0;22.0;0.0;0.0;14.04.10;10117
Krausenstraße 72;Berlin;1369;52.509467;Normalladeeinrichtung;13.389543;2;innogy SE;AC Steckdose Typ 2;AC Steckdose Typ 2;;;22.0;22.0;0.0;0.0;13.07.10;10117
Neue Jüdenstraße 1;Berlin;1370;52.51579;Normalladeeinrichtung;13.41046;2;innogy SE;AC Steckdose Typ 2;AC Steckdose Typ 2;;;22.0;22.0;0.0;0.0;13.09.10;10117
Reinhardtstraße 32;Berlin;1371;52.522819;Normalladeeinrichtung;13.380966;2;innogy SE;AC Steckdose Typ 2;AC Steckdose Typ 2;;;22.0;22.0;0.0;0.0;13.03.12;10117
Platz vor dem Neuen Tor;Berlin;1372;52.528677;Normalladeeinrichtung;13.378846;2;innogy SE;AC Steckdose Typ 2;AC Steckdose Typ 2;;;22.0;22.0;0.0;0.0;07.04.16;10117
Voßstr. 24;Berlin;1373;52.510907;Normalladeeinrichtung;13.378211;2;Allego GmbH;AC Steckdose Typ 2;AC Steckdose Typ 2;;;11.0;11.0;0.0;0.0;18.05.16;10117
Leipziger Str. 59 in Jerusalemer Str .;Berlin;1374;52.511309;Normalladeeinrichtung;13.396763;2;Allego GmbH;AC Steckdose Typ 2;AC Steckdose Typ 2;;;11.0;11.0;0.0;0.0;12.12.16;10117
Taubenstr. 14;Berlin;1375;52.512969;Normalladeeinrichtung;13.390118;2;Allego GmbH;AC Steckdose Typ 2;AC Steckdose Typ 2;;;11.0;11.0;0.0;0.0;19.01.17;10117
Mauerstr. 32;Berlin;1376;52.515197;Normalladeeinrichtung;13.38431;2;Allego GmbH;AC Steckdose Typ 2;AC Steckdose Typ 2;;;11.0;11.0;0.0;0.0;27.02.17;10117
Dorotheenstr. 63;Berlin;1377;52.518608;Normalladeeinrichtung;13.387711;2;Allego GmbH;AC Steckdose Typ 2;AC Steckdose Typ 2;;;11.0;11.0;0.0;0.0;12.07.17;10117
Jägerstr. 61;Berlin;1378;52.513886;Normalladeeinrichtung;13.390051;2;Allego GmbH;AC Steckdose Typ 2;AC Steckdose Typ 2;;;11.0;11.0;0.0;0.0;17.05.17;10117
Neustädtische Kirchstr. 8;Berlin;1379;52.519615;Normalladeeinrichtung;13.385222;2;Allego GmbH;AC Steckdose Typ 2;AC Steckdose Typ 2;;;11.0;11.0;0.0;0.0;27.04.17;10117
Unter den Linden 77;Berlin;1380;52.5160186;Normalladeeinrichtung;13.3802426;1;APCOA PARKING Deutschland GmbH;AC Steckdose Typ 2;;;;11.0;0.0;0.0;0.0;01.12.16;10117
Veteranenstraße 25;Berlin;1381;52.53382;Normalladeeinrichtung;13.403185;2;innogy SE;AC Steckdose Typ 2;AC Steckdose Typ 2;;;22.0;22.0;0.0;0.0;16.07.10;10119
Jüdenstrasse 1;Berlin;1382;52.518744;Normalladeeinrichtung;13.409136;2;innogy SE;AC Steckdose Typ 2;AC Steckdose Typ 2;;;22.0;22.0;0.0;0.0;14.07.09;10178
Mollstraße 4;Berlin;1383;52.524167;Normalladeeinrichtung;13.421389;2;innogy SE;AC Steckdose Typ 2;AC Steckdose Typ 2;;;22.0;22.0;0.0;0.0;15.04.10;10178
Spandauer Str. 2;Berlin;1384;52.520978;Normalladeeinrichtung;13.403944;2;Allego GmbH;AC Steckdose Typ 2;AC Steckdose Typ 2;;;11.0;11.0;0.0;0.0;14.04.16;10178
Alexanderstr. 4;Berlin;1385;52.522747;Schnellladeeinrichtung;13.413833;2;Allego GmbH;DC Kupplung Combo, DC CHAdeMO;AC Kupplung Typ 2;;;50.0;43.0;0.0;0.0;01.12.16;10178
Karl-Liebknecht-Str. 29;Berlin;1386;52.524215;Normalladeeinrichtung;13.41251;2;Allego GmbH;AC Steckdose Typ 2;AC Steckdose Typ 2;;;11.0;11.0;0.0;0.0;27.04.17;10178
Voltairestraße 2;Berlin;1387;52.517707;Normalladeeinrichtung;13.417261;2;innogy SE;AC Steckdose Typ 2;AC Steckdose Typ 2;;;22.0;22.0;0.0;0.0;13.04.10;10179
Alte Jakobstraße 76;Berlin;1388;52.510383;Normalladeeinrichtung;13.409065;2;innogy SE;AC Steckdose Typ 2;AC Steckdose Typ 2;;;22.0;22.0;0.0;0.0;14.04.10;10179
Am Köllnischen Park 3;Berlin;1389;52.513388;Normalladeeinrichtung;13.415578;2;Allego GmbH;AC Steckdose Typ 2;AC Steckdose Typ 2;;;11.0;11.0;0.0;0.0;14.10.16;10179
Heinrich-Heine-Str. 13;Berlin;1390;52.508218;Normalladeeinrichtung;13.414446;2;Allego GmbH;AC Steckdose Typ 2;AC Steckdose Typ 2;;;11.0;11.0;0.0;0.0;12.12.16;10179
Gruner Straße 20;Berlin;1391;52.5199026;Normalladeeinrichtung;13.4147948;4;APCOA PARKING Deutschland GmbH;AC Steckdose Typ 2;AC Steckdose Typ 2;AC Steckdose Typ 2;AC Steckdose Typ 2;11.0;11.0;11.0;11.0;01.12.16;10179
Andreasstr. 47;Berlin;1392;52.517177;Normalladeeinrichtung;13.432585;2;Allego GmbH;AC Steckdose Typ 2;AC Steckdose Typ 2;;;11.0;11.0;0.0;0.0;06.07.16;10243
Friedrichsberger Str. 24;Berlin;1393;52.521066;Normalladeeinrichtung;13.434841;2;Allego GmbH;AC Steckdose Typ 2;AC Steckdose Typ 2;;;11.0;11.0;0.0;0.0;06.10.16;10243
Koppenstr. 46;Berlin;1394;52.520102;Normalladeeinrichtung;13.437725;2;Allego GmbH;AC Steckdose Typ 2;AC Steckdose Typ 2;;;11.0;11.0;0.0;0.0;10.10.15;10243
Kadinerstr. 1;Berlin;1395;52.515183;Normalladeeinrichtung;13.450787;2;Allego GmbH;AC Steckdose Typ 2;AC Steckdose Typ 2;;;11.0;11.0;0.0;0.0;06.10.15;10243
Marchlewskistr. 107;Berlin;1396;52.507889;Normalladeeinrichtung;13.449488;2;Allego GmbH;AC Steckdose Typ 2;AC Steckdose Typ 2;;;11.0;11.0;0.0;0.0;06.10.15;10243
Grünberger Str. 4;Berlin;1397;52.51305;Normalladeeinrichtung;13.448263;2;Allego GmbH;AC Steckdose Typ 2;AC Steckdose Typ 2;;;11.0;11.0;0.0;0.0;30.03.17;10243
Wühlischstr. 54;Berlin;1398;52.507268;Normalladeeinrichtung;13.466975;2;Allego GmbH;AC Steckdose Typ 2;AC Steckdose Typ 2;;;11.0;11.0;0.0;0.0;18.08.16;10245
Glasbläserallee 4;Berlin;1399;52.496249;Normalladeeinrichtung;13.46754;2;Allego GmbH;AC Steckdose Typ 2;AC Steckdose Typ 2;;;11.0;11.0;0.0;0.0;30.10.17;10245
Markgrafendamm 6;Berlin;1400;52.498498;Normalladeeinrichtung;13.465531;1;Allego GmbH;AC Steckdose Typ 2;;;;11.0;0.0;0.0;0.0;24.07.17;10245
Rochowstr. 13;Berlin;1401;52.500352;Normalladeeinrichtung;13.458532;1;Allego GmbH;AC Steckdose Typ 2;;;;11.0;0.0;0.0;0.0;30.10.17;10245
Mainzer Str. 1;Berlin;1402;52.514612;Normalladeeinrichtung;13.463083;2;Allego GmbH;AC Steckdose Typ 2;AC Steckdose Typ 2;;;11.0;11.0;0.0;0.0;17.02.16;10247
Scharnweberstr. 1 A;Berlin;1403;52.511975;Normalladeeinrichtung;13.474964;2;Allego GmbH;AC Steckdose Typ 2;AC Steckdose Typ 2;;;11.0;11.0;0.0;0.0;10.09.15;10247
Gryphiusstr. 17;Berlin;1404;52.510496;Normalladeeinrichtung;13.465006;2;Allego GmbH;AC Steckdose Typ 2;AC Steckdose Typ 2;;;11.0;11.0;0.0;0.0;05.01.18;10247
Hermann-Blankenstein-Straße 40;Berlin;1405;52.523056;Normalladeeinrichtung;13.466111;2;innogy SE;AC Steckdose Typ 2;AC Steckdose Typ 2;;;22.0;22.0;0.0;0.0;23.05.12;10249
Kochhannstr. 9;Berlin;1406;52.524128;Normalladeeinrichtung;13.448454;2;Allego GmbH;AC Steckdose Typ 2;AC Steckdose Typ 2;;;11.0;11.0;0.0;0.0;24.10.15;10249
Büschingstr. 1;Berlin;1407;52.525626;Normalladeeinrichtung;13.428995;2;Allego GmbH;AC Steckdose Typ 2;AC Steckdose Typ 2;;;11.0;11.0;0.0;0.0;14.11.15;10249
Einbecker Straße 119;Berlin;1408;52.505603;Normalladeeinrichtung;13.513615;2;innogy SE;AC Steckdose Typ 2;AC Steckdose Typ 2;;;22.0;22.0;0.0;0.0;29.09.11;10315
Rhinstr. 163;Berlin;1409;52.534426;Normalladeeinrichtung;13.51782;2;Allego GmbH;AC Steckdose Typ 2;AC Steckdose Typ 2;;;11.0;11.0;0.0;0.0;14.03.16;10315
Stadthausstraße;Berlin;1410;52.502977;Normalladeeinrichtung;13.481084;2;innogy SE;AC Steckdose Typ 2;AC Steckdose Typ 2;;;22.0;22.0;0.0;0.0;29.09.11;10317
Weitlingstr. 52;Berlin;1411;52.504825;Normalladeeinrichtung;13.496068;2;Allego GmbH;AC Steckdose Typ 2;AC Steckdose Typ 2;;;11.0;11.0;0.0;0.0;26.08.16;10317
Nöldnerstr. 9;Berlin;1412;52.501809;Normalladeeinrichtung;13.4779;2;Allego GmbH;AC Steckdose Typ 2;AC Steckdose Typ 2;;;11.0;11.0;0.0;0.0;23.12.15;10317
Stolzenfelsstraße 1;Berlin;1413;52.481183;Normalladeeinrichtung;13.526469;2;innogy SE;AC Steckdose Typ 2;AC Steckdose Typ 2;;;22.0;22.0;0.0;0.0;28.09.12;10318
Römerweg 38;Berlin;1414;52.491855;Normalladeeinrichtung;13.52497;2;Allego GmbH;AC Steckdose Typ 2;AC Steckdose Typ 2;;;11.0;11.0;0.0;0.0;26.06.17;10318
Sewanstr. ggü. 43;Berlin;1415;52.498223;Normalladeeinrichtung;13.502235;2;Allego GmbH;AC Steckdose Typ 2;AC Steckdose Typ 2;;;11.0;11.0;0.0;0.0;14.04.16;10319
Frankfurter Allee 248;Berlin;1416;52.511667;Normalladeeinrichtung;13.4975;2;innogy SE;AC Steckdose Typ 2;AC Steckdose Typ 2;;;22.0;22.0;0.0;0.0;27.09.11;10365
Normannenstr. 1;Berlin;1417;52.516139;Normalladeeinrichtung;13.479989;2;innogy SE;AC Steckdose Typ 2;AC Steckdose Typ 2;;;22.0;22.0;0.0;0.0;13.03.12;10367
Josef-Orlopp-Str. 4;Berlin;1418;52.523041;Normalladeeinrichtung;13.480103;2;Allego GmbH;AC Steckdose Typ 2;AC Steckdose Typ 2;;;11.0;11.0;0.0;0.0;11.02.16;10367
Landsberger Allee 174;Berlin;1419;52.531126;Normalladeeinrichtung;13.468979;2;innogy SE;AC Steckdose Typ 2;AC Steckdose Typ 2;;;22.0;22.0;0.0;0.0;23.12.11;10369
Chodowiekistr. ggü.1;Berlin;1420;52.535618;Normalladeeinrichtung;13.431859;2;Allego GmbH;AC Steckdose Typ 2;AC Steckdose Typ 2;;;11.0;11.0;0.0;0.0;12.10.16;10405
Immanuelkirchstr. 14;Berlin;1421;52.53194;Normalladeeinrichtung;13.425677;2;Allego GmbH;AC Steckdose Typ 2;AC Steckdose Typ 2;;;11.0;11.0;0.0;0.0;05.01.16;10405
Kollwitzstr. 35;Berlin;1422;52.5337;Normalladeeinrichtung;13.414964;2;Allego GmbH;AC Steckdose Typ 2;AC Steckdose Typ 2;;;11.0;11.0;0.0;0.0;22.12.15;10405
John-Schehr-Str.66;Berlin;1423;52.533827;Normalladeeinrichtung;13.442525;2;Allego GmbH;AC Steckdose Typ 2;AC Steckdose Typ 2;;;11.0;11.0;0.0;0.0;23.12.15;10407
Oderbruchstr. 13;Berlin;1424;52.530883;Normalladeeinrichtung;13.461713;1;Allego GmbH;AC Steckdose Typ 2;;;;3.7;0.0;0.0;0.0;15.02.17;10407
Naugarder Str. 1;Berlin;1425;52.542085;Normalladeeinrichtung;13.438961;2;Allego GmbH;AC Steckdose Typ 2;AC Steckdose Typ 2;;;11.0;11.0;0.0;0.0;14.11.15;10409
Hosemannstr. 9;Berlin;1426;52.547015;Normalladeeinrichtung;13.438632;2;Allego GmbH;AC Steckdose Typ 2;AC Steckdose Typ 2;;;11.0;11.0;0.0;0.0;06.06.17;10409
Griebenowstraße 5;Berlin;1427;52.535712;Normalladeeinrichtung;13.405008;2;innogy SE;AC Steckdose Typ 2;AC Steckdose Typ 2;;;22.0;22.0;0.0;0.0;17.07.09;10435
Swinemünder Str. 126;Berlin;1428;52.535344;Normalladeeinrichtung;13.403331;2;Allego GmbH;AC Steckdose Typ 2;AC Steckdose Typ 2;;;11.0;11.0;0.0;0.0;19.12.16;10435
Oderberger Str. 22;Berlin;1429;52.539697;Normalladeeinrichtung;13.406896;2;Allego GmbH;AC Steckdose Typ 2;AC Steckdose Typ 2;;;11.0;11.0;0.0;0.0;31.03.17;10435
Raumerstr. ggü. 6;Berlin;1430;52.543283;Normalladeeinrichtung;13.417228;2;Allego GmbH;AC Steckdose Typ 2;AC Steckdose Typ 2;;;11.0;11.0;0.0;0.0;22.12.15;10437
Gneiststr. 10;Berlin;1431;52.544174;Normalladeeinrichtung;13.415361;2;Allego GmbH;AC Steckdose Typ 2;AC Steckdose Typ 2;;;11.0;11.0;0.0;0.0;29.08.17;10437
Kopenhagener Str. 77;Berlin;1432;52.548538;Normalladeeinrichtung;13.412197;2;Allego GmbH;AC Steckdose Typ 2;AC Steckdose Typ 2;;;11.0;11.0;0.0;0.0;27.09.17;10437
Wichertstr. 34;Berlin;1433;52.546751;Normalladeeinrichtung;13.424988;2;Allego GmbH;AC Steckdose Typ 2;AC Steckdose Typ 2;;;11.0;11.0;0.0;0.0;13.11.15;10439
Krügerstr. 25;Berlin;1434;52.55057;Normalladeeinrichtung;13.429248;2;Allego GmbH;AC Steckdose Typ 2;AC Steckdose Typ 2;;;11.0;11.0;0.0;0.0;14.11.15;10439
Paul-Robeson-Str. 50;Berlin;1435;52.552103;Normalladeeinrichtung;13.413783;2;Allego GmbH;AC Steckdose Typ 2;AC Steckdose Typ 2;;;11.0;11.0;0.0;0.0;14.11.15;10439
Schönfließer Str. 9;Berlin;1436;52.553752;Normalladeeinrichtung;13.408519;2;Allego GmbH;AC Steckdose Typ 2;AC Steckdose Typ 2;;;11.0;11.0;0.0;0.0;14.11.15;10439
Schönhauser Allee 79-80;Berlin;1437;52.5494582;Normalladeeinrichtung;13.4157815;2;APCOA PARKING Deutschland GmbH;AC Steckdose Typ 2;AC Steckdose Typ 2;;;11.0;11.0;0.0;0.0;01.12.16;10439
Birkenstr. 33;Berlin;1438;52.532441;Normalladeeinrichtung;13.341048;2;Allego GmbH;AC Steckdose Typ 2;AC Steckdose Typ 2;;;11.0;11.0;0.0;0.0;07.04.17;10551
Erasmusstr. 20;Berlin;1439;52.526111;Normalladeeinrichtung;13.32721;2;Allego GmbH;AC Steckdose Typ 2;AC Steckdose Typ 2;;;11.0;11.0;0.0;0.0;07.04.17;10553
Alt-Moabit 72;Berlin;1440;52.524128;Normalladeeinrichtung;13.332421;2;Allego GmbH;AC Steckdose Typ 2;AC Steckdose Typ 2;;;11.0;11.0;0.0;0.0;12.12.16;10555
Friedrich-List-Ufer;Berlin;1441;52.525956;Normalladeeinrichtung;13.370633;2;innogy SE;AC Steckdose Typ 2;AC Steckdose Typ 2;;;22.0;22.0;0.0;0.0;17.07.09;10557
Alt-Moabit 5;Berlin;1442;52.523223;Normalladeeinrichtung;13.362537;2;innogy SE;AC Steckdose Typ 2;AC Steckdose Typ 2;;;22.0;22.0;0.0;0.0;13.04.10;10557
Flensburger Straße 1;Berlin;1443;52.520314;Normalladeeinrichtung;13.345655;2;innogy SE;AC Steckdose Typ 2;AC Steckdose Typ 2;;;22.0;22.0;0.0;0.0;13.04.10;10557
Clara-Jaschke-Str. 88;Berlin;1444;52.523427;Normalladeeinrichtung;13.366234;2;Allego GmbH;AC Steckdose Typ 2;AC Steckdose Typ 2;;;11.0;11.0;0.0;0.0;10.01.17;10557
Otto-Suhr-Allee 84;Berlin;1445;52.516632;Normalladeeinrichtung;13.309385;2;innogy SE;AC Steckdose Typ 2;AC Steckdose Typ 2;;;22.0;22.0;0.0;0.0;20.05.09;10585
Krumme Straße 73;Berlin;1446;52.5121;Normalladeeinrichtung;13.309261;2;innogy SE;AC Steckdose Typ 2;AC Steckdose Typ 2;;;22.0;22.0;0.0;0.0;12.06.09;10585
Krumme Str. 85;Berlin;1447;52.513972;Normalladeeinrichtung;13.309838;2;Allego GmbH;AC Steckdose Typ 2;AC Steckdose Typ 2;;;11.0;11.0;0.0;0.0;04.10.16;10585
Marchstraße 9;Berlin;1448;52.513661;Normalladeeinrichtung;13.322778;2;innogy SE;AC Steckdose Typ 2;AC Steckdose Typ 2;;;22.0;22.0;0.0;0.0;20.05.09;10587
Wilmersdorfer Str. 8;Berlin;1449;52.517207;Normalladeeinrichtung;13.304447;2;Allego GmbH;AC Steckdose Typ 2;AC Steckdose Typ 2;;;11.0;11.0;0.0;0.0;05.07.16;10587
Charlottenburger Ufer 1;Berlin;1450;52.52122;Normalladeeinrichtung;13.300289;2;Allego GmbH;AC Steckdose Typ 2;AC Steckdose Typ 2;;;11.0;11.0;0.0;0.0;05.12.15;10587
Osnabrücker Str. 26;Berlin;1451;52.525864;Normalladeeinrichtung;13.301083;2;Allego GmbH;AC Steckdose Typ 2;AC Steckdose Typ 2;;;11.0;11.0;0.0;0.0;07.11.15;10589
Savignyplatz (Nord) 6;Berlin;1452;52.506539;Normalladeeinrichtung;13.322375;2;innogy SE;AC Steckdose Typ 2;AC Steckdose Typ 2;;;22.0;22.0;0.0;0.0;16.02.10;10623
Savignyplatz (Süd) 2;Berlin;1453;52.50553;Normalladeeinrichtung;13.322816;2;innogy SE;AC Steckdose Typ 2;AC Steckdose Typ 2;;;22.0;22.0;0.0;0.0;20.05.09;10623
Straße des 17. Juni 115;Berlin;1454;52.513015;Normalladeeinrichtung;13.329802;2;innogy SE;AC Steckdose Typ 2;AC Steckdose Typ 2;;;22.0;22.0;0.0;0.0;20.05.09;10623
Fasanenstr. 12;Berlin;1455;52.505217;Normalladeeinrichtung;13.327709;2;innogy SE;AC Steckdose Typ 2;AC Steckdose Typ 2;;;22.0;22.0;0.0;0.0;20.11.14;10623
Fasanenstrstr. 88;Berlin;1456;52.510533;Normalladeeinrichtung;13.330307;2;Allego GmbH;AC Steckdose Typ 2;AC Steckdose Typ 2;;;11.0;11.0;0.0;0.0;22.12.15;10623
Schillerstr. 29;Berlin;1457;52.510341;Normalladeeinrichtung;13.309893;2;Allego GmbH;AC Steckdose Typ 2;AC Steckdose Typ 2;;;11.0;11.0;0.0;0.0;05.07.16;10625
Schlüterstr. 62;Berlin;1458;52.505876;Normalladeeinrichtung;13.317669;2;Allego GmbH;AC Steckdose Typ 2;AC Steckdose Typ 2;;;11.0;11.0;0.0;0.0;07.11.15;10625
Kantstraße 111 a;Berlin;1459;52.506822;Normalladeeinrichtung;13.306286;2;innogy SE;AC Steckdose Typ 2;AC Steckdose Typ 2;;;22.0;22.0;0.0;0.0;12.06.09;10627
Windscheid Str. 20;Berlin;1460;52.505012;Normalladeeinrichtung;13.299993;2;innogy SE;AC Steckdose Typ 2;AC Steckdose Typ 2;;;22.0;22.0;0.0;0.0;12.06.09;10627
Suarezstr. 1;Berlin;1461;52.510481;Normalladeeinrichtung;13.296954;2;Allego GmbH;AC Steckdose Typ 2;AC Steckdose Typ 2;;;11.0;11.0;0.0;0.0;23.12.15;10627
Pestalozzistr. 44;Berlin;1462;52.5337;Normalladeeinrichtung;13.414964;2;Allego GmbH;AC Steckdose Typ 2;AC Steckdose Typ 2;;;11.0;11.0;0.0;0.0;22.12.15;10627
Leibnitzstr. 59;Berlin;1463;52.502757;Normalladeeinrichtung;13.313239;2;Allego GmbH;AC Steckdose Typ 2;AC Steckdose Typ 2;;;11.0;11.0;0.0;0.0;18.08.16;10629
Dahlmannstr. 1a;Berlin;1464;52.503442;Normalladeeinrichtung;13.30371;2;Allego GmbH;AC Steckdose Typ 2;AC Steckdose Typ 2;;;11.0;11.0;0.0;0.0;25.02.16;10629
Waitzstr.7;Berlin;1465;52.501687;Normalladeeinrichtung;13.305567;2;Allego GmbH;AC Steckdose Typ 2;AC Steckdose Typ 2;;;11.0;11.0;0.0;0.0;20.11.15;10629
Schlüterstraße 46;Berlin;1466;52.500883;Normalladeeinrichtung;13.3168;2;innogy SE;AC Steckdose Typ 2;AC Steckdose Typ 2;;;22.0;22.0;0.0;0.0;20.05.09;10707
Pommersche Straße 9;Berlin;1467;52.493249;Normalladeeinrichtung;13.315086;2;innogy SE;AC Steckdose Typ 2;AC Steckdose Typ 2;;;22.0;22.0;0.0;0.0;20.05.09;10707
Fehrbelliner Platz 8;Berlin;1468;52.49067;Normalladeeinrichtung;13.31408;2;Allego GmbH;AC Steckdose Typ 2;AC Steckdose Typ 2;;;11.0;11.0;0.0;0.0;17.08.16;10707
Wittelsbacher Str. 19;Berlin;1469;52.495371;Normalladeeinrichtung;13.308887;2;Allego GmbH;AC Steckdose Typ 2;AC Steckdose Typ 2;;;11.0;11.0;0.0;0.0;13.11.15;10707
Düsseldorfer Str. 51;Berlin;1470;52.496709;Normalladeeinrichtung;13.313894;2;Allego GmbH;AC Steckdose Typ 2;AC Steckdose Typ 2;;;11.0;11.0;0.0;0.0;03.08.17;10707
Lehniner Platz /Kurfürstendamm vor 90;Berlin;1471;52.499225;Normalladeeinrichtung;13.301795;2;Allego GmbH;AC Steckdose Typ 2;AC Steckdose Typ 2;;;11.0;11.0;0.0;0.0;15.02.16;10709
Westfälische Str. 81;Berlin;1472;52.493295;Normalladeeinrichtung;13.305454;2;Allego GmbH;AC Steckdose Typ 2;AC Steckdose Typ 2;;;11.0;11.0;0.0;0.0;15.03.18;10709
Bornstedter Str. ggü. 20;Berlin;1473;52.496901;Normalladeeinrichtung;13.287951;2;Allego GmbH;AC Steckdose Typ 2;AC Steckdose Typ 2;;;11.0;11.0;0.0;0.0;23.08.16;10711
Aachener Str. 5;Berlin;1474;52.481323;Normalladeeinrichtung;13.318856;2;Allego GmbH;AC Steckdose Typ 2;AC Steckdose Typ 2;;;11.0;11.0;0.0;0.0;07.11.15;10713
Rudolstädter Str. 123;Berlin;1475;52.487809;Normalladeeinrichtung;13.302828;2;Allego GmbH;AC Steckdose Typ 2;AC Steckdose Typ 2;;;11.0;11.0;0.0;0.0;22.12.15;10713
Durlacher Str. 35;Berlin;1476;52.481311;Normalladeeinrichtung;13.329605;2;Allego GmbH;AC Steckdose Typ 2;AC Steckdose Typ 2;;;11.0;11.0;0.0;0.0;13.11.15;10715
Detmolder Str. 11A;Berlin;1477;52.478824;Normalladeeinrichtung;13.323897;1;Allego GmbH;AC Steckdose Typ 2;;;;11.0;0.0;0.0;0.0;27.03.18;10715
Mainzer Str. 22;Berlin;1478;52.479959;Normalladeeinrichtung;13.323902;2;Allego GmbH;AC Steckdose Typ 2;AC Steckdose Typ 2;;;11.0;11.0;0.0;0.0;08.02.18;10715
Güntzelstr.56/Ecke Bundesallee 14;Berlin;1479;52.49095;Normalladeeinrichtung;13.330553;2;innogy SE;AC Steckdose Typ 2;AC Steckdose Typ 2;;;22.0;22.0;0.0;0.0;20.05.09;10717
Trautenaustr. Ggü. 21;Berlin;1480;52.493241;Normalladeeinrichtung;13.330154;2;Allego GmbH;AC Steckdose Typ 2;AC Steckdose Typ 2;;;11.0;11.0;0.0;0.0;05.07.16;10717
Schaperstraße 17;Berlin;1481;52.499416;Normalladeeinrichtung;13.329086;2;innogy SE;AC Steckdose Typ 2;AC Steckdose Typ 2;;;22.0;22.0;0.0;0.0;20.05.09;10719
Ludwigkirchstr. ggü. 6;Berlin;1482;52.497883;Normalladeeinrichtung;13.324219;2;Allego GmbH;AC Steckdose Typ 2;AC Steckdose Typ 2;;;11.0;11.0;0.0;0.0;22.12.15;10719
Uhlandstr. 61;Berlin;1483;52.494521;Normalladeeinrichtung;13.323631;2;Allego GmbH;AC Steckdose Typ 2;AC Steckdose Typ 2;;;11.0;11.0;0.0;0.0;20.11.15;10719
Motzstraße 43;Berlin;1484;52.496774;Normalladeeinrichtung;13.344862;2;innogy SE;AC Steckdose Typ 2;AC Steckdose Typ 2;;;22.0;22.0;0.0;0.0;28.09.12;10777
Fuggerstr. 34;Berlin;1485;52.499237;Normalladeeinrichtung;13.342238;2;Allego GmbH;AC Steckdose Typ 2;AC Steckdose Typ 2;;;11.0;11.0;0.0;0.0;22.06.16;10777
Eisenacher Str. 1;Berlin;1486;52.500134;Normalladeeinrichtung;13.349617;2;Allego GmbH;AC Steckdose Typ 2;AC Steckdose Typ 2;;;11.0;11.0;0.0;0.0;04.08.16;10777
Eisenachstr. 102;Berlin;1487;52.494823;Normalladeeinrichtung;13.349851;2;Allego GmbH;AC Steckdose Typ 2;AC Steckdose Typ 2;;;11.0;11.0;0.0;0.0;05.08.16;10781
Pallasstr. 2;Berlin;1488;52.494506;Normalladeeinrichtung;13.360266;2;Allego GmbH;AC Steckdose Typ 2;AC Steckdose Typ 2;;;11.0;11.0;0.0;0.0;14.03.16;10781
Eisenacher Str. 32;Berlin;1489;52.491716;Normalladeeinrichtung;13.349171;2;Allego GmbH;AC Steckdose Typ 2;AC Steckdose Typ 2;;;11.0;11.0;0.0;0.0;22.02.18;10781
Frobenstr. Ggü. 22;Berlin;1490;52.498649;Normalladeeinrichtung;13.359538;2;Allego GmbH;AC Steckdose Typ 2;AC Steckdose Typ 2;;;11.0;11.0;0.0;0.0;04.03.16;10783
Bellevuestr. 3;Berlin;1491;52.510428;Normalladeeinrichtung;13.373844;2;innogy SE;AC Steckdose Typ 2;AC Steckdose Typ 2;;;22.0;22.0;0.0;0.0;17.07.09;10785
Lützowplatz 11;Berlin;1492;52.504097;Normalladeeinrichtung;13.353095;2;innogy SE;AC Steckdose Typ 2;AC Steckdose Typ 2;;;22.0;22.0;0.0;0.0;15.07.10;10785
Kurfürstenstr. 164;Berlin;1493;52.499244;Normalladeeinrichtung;13.366073;2;Allego GmbH;AC Steckdose Typ 2;AC Steckdose Typ 2;;;11.0;11.0;0.0;0.0;12.12.16;10785
Einemstr. 25;Berlin;1494;52.503742;Normalladeeinrichtung;13.352832;2;Allego GmbH;AC Steckdose Typ 2;AC Steckdose Typ 2;;;11.0;11.0;0.0;0.0;10.01.17;10785
Inge-Beisheim-Platz 1;Berlin;1495;52.511446;Normalladeeinrichtung;13.376732;1;Allego GmbH;AC Steckdose Typ 2;;;;11.0;0.0;0.0;0.0;01.09.16;10785
Inge-Beisheim-Platz 1;Berlin;1496;52.511446;Normalladeeinrichtung;13.376732;1;Allego GmbH;AC Steckdose Typ 2;;;;11.0;0.0;0.0;0.0;01.09.16;10785
Inge-Beisheim-Platz 1;Berlin;1497;52.511446;Normalladeeinrichtung;13.376732;1;Allego GmbH;AC Steckdose Typ 2;;;;11.0;0.0;0.0;0.0;01.09.16;10785
Lützowstr. 113;Berlin;1498;52.501842;Normalladeeinrichtung;13.370846;2;Allego GmbH;AC Steckdose Typ 2;AC Steckdose Typ 2;;;11.0;11.0;0.0;0.0;12.07.17;10785
Stülerstraße 11;Berlin;1499;52.507832;Normalladeeinrichtung;13.349137;2;innogy SE;AC Steckdose Typ 2;AC Steckdose Typ 2;;;22.0;22.0;0.0;0.0;13.04.10;10787
Burggrafenstraße 6;Berlin;1500;52.505073;Normalladeeinrichtung;13.343569;2;innogy SE;AC Steckdose Typ 2;AC Steckdose Typ 2;;;22.0;22.0;0.0;0.0;23.05.12;10787
Keithstr. 1;Berlin;1501;52.501532;Normalladeeinrichtung;13.345728;2;Allego GmbH;AC Steckdose Typ 2;AC Steckdose Typ 2;;;11.0;11.0;0.0;0.0;02.06.16;10787
Budapester Str. 11;Berlin;1502;52.506636;Normalladeeinrichtung;13.346073;2;Allego GmbH;AC Steckdose Typ 2;AC Steckdose Typ 2;;;11.0;11.0;0.0;0.0;21.03.17;10787
Augsburger Str. 25;Berlin;1503;52.501585;Normalladeeinrichtung;13.335301;2;innogy SE;AC Steckdose Typ 2;AC Steckdose Typ 2;;;22.0;22.0;0.0;0.0;20.05.09;10789
Bayreuther Straße 36;Berlin;1504;52.501225;Normalladeeinrichtung;13.343711;2;innogy SE;AC Steckdose Typ 2;AC Steckdose Typ 2;;;22.0;22.0;0.0;0.0;23.12.11;10789
Apostel-Paulus-Str. 5;Berlin;1505;52.488368;Normalladeeinrichtung;13.349555;2;Allego GmbH;AC Steckdose Typ 2;AC Steckdose Typ 2;;;11.0;11.0;0.0;0.0;19.10.16;10823
Grunewaldstraße 57;Berlin;1506;52.488661;Normalladeeinrichtung;13.340837;2;innogy SE;AC Steckdose Typ 2;AC Steckdose Typ 2;;;22.0;22.0;0.0;0.0;23.05.12;10825
Fritz-Elsas-Str. 22;Berlin;1507;52.482535;Normalladeeinrichtung;13.346442;2;Allego GmbH;AC Steckdose Typ 2;AC Steckdose Typ 2;;;11.0;11.0;0.0;0.0;02.06.16;10825
Badensche Str. 8;Berlin;1508;52.485822;Normalladeeinrichtung;13.337844;2;Allego GmbH;AC Steckdose Typ 2;AC Steckdose Typ 2;;;11.0;11.0;0.0;0.0;28.10.16;10825
Berchtesgadener Str.13;Berlin;1509;52.488831;Normalladeeinrichtung;13.343806;2;Allego GmbH;AC Steckdose Typ 2;AC Steckdose Typ 2;;;11.0;11.0;0.0;0.0;10.03.16;10825
Belziger Str. 19;Berlin;1510;52.487371;Normalladeeinrichtung;13.354516;2;Allego GmbH;AC Steckdose Typ 2;AC Steckdose Typ 2;;;11.0;11.0;0.0;0.0;23.02.16;10825
Helmstr. 10;Berlin;1511;52.48853;Normalladeeinrichtung;13.359963;2;Allego GmbH;AC Steckdose Typ 2;AC Steckdose Typ 2;;;11.0;11.0;0.0;0.0;15.02.16;10827
Großgörschenstr. Vor 1;Berlin;1512;52.491234;Normalladeeinrichtung;13.361049;2;Allego GmbH;AC Steckdose Typ 2;AC Steckdose Typ 2;;;11.0;11.0;0.0;0.0;05.02.16;10827
Lotte-Laserstein-Straße DB Südkreuz;Berlin;1513;52.47574;Schnellladeeinrichtung;13.3642;2;Allego GmbH;DC Kupplung Combo, DC CHAdeMO;AC Kupplung Typ 2;;;50.0;43.0;0.0;0.0;18.09.15;10829
Leberstr. 6;Berlin;1514;52.485471;Normalladeeinrichtung;13.361404;2;Allego GmbH;AC Steckdose Typ 2;AC Steckdose Typ 2;;;11.0;11.0;0.0;0.0;04.03.16;10829
EUREF-Campus 15;Berlin;1515;52.480154;Normalladeeinrichtung;13.355319;4;inno2grid GmbH;AC Steckdose Typ 2;AC Steckdose Typ 2;AC Steckdose Typ 2;AC Steckdose Typ 2;22.0;22.0;22.0;22.0;01.06.16;10829
EUREF-Campus 21/22;Berlin;1516;52.480792;Normalladeeinrichtung;13.356835;1;Gesellschaft für verteilte Energiesysteme mbH;AC Steckdose Typ 2;;;;11.0;0.0;0.0;0.0;19.10.18;10829
EUREF-Campus 21/22;Berlin;1517;52.480834;Normalladeeinrichtung;13.356927;1;Gesellschaft für verteilte Energiesysteme mbH;AC Steckdose Typ 2;;;;11.0;0.0;0.0;0.0;19.10.18;10829
EUREF-Campus 21/22;Berlin;1518;52.480931;Normalladeeinrichtung;13.357124;1;Gesellschaft für verteilte Energiesysteme mbH;AC Steckdose Typ 2;;;;11.0;0.0;0.0;0.0;19.10.18;10829
EUREF-Campus 21/22;Berlin;1519;52.48098;Normalladeeinrichtung;13.357018;1;Gesellschaft für verteilte Energiesysteme mbH;AC Steckdose Typ 2;;;;11.0;0.0;0.0;0.0;19.10.18;10829
EUREF-Campus 21/22;Berlin;1520;52.481024;Normalladeeinrichtung;13.356947;1;Gesellschaft für verteilte Energiesysteme mbH;AC Steckdose Typ 2;;;;11.0;0.0;0.0;0.0;19.10.18;10829
EUREF-Campus 21/22;Berlin;1521;52.481086;Normalladeeinrichtung;13.356849;1;Gesellschaft für verteilte Energiesysteme mbH;AC Steckdose Typ 2;;;;11.0;0.0;0.0;0.0;19.10.18;10829
EUREF-Campus 21/22;Berlin;1522;52.481118;Normalladeeinrichtung;13.356752;1;Gesellschaft für verteilte Energiesysteme mbH;AC Steckdose Typ 2;;;;11.0;0.0;0.0;0.0;19.10.18;10829
EUREF-Campus 21/22;Berlin;1523;52.481132;Normalladeeinrichtung;13.356673;1;Gesellschaft für verteilte Energiesysteme mbH;AC Steckdose Typ 2;;;;11.0;0.0;0.0;0.0;19.10.18;10829
EUREF-Campus 21/22;Berlin;1524;52.481134;Normalladeeinrichtung;13.356598;1;Gesellschaft für verteilte Energiesysteme mbH;AC Steckdose Typ 2;;;;11.0;0.0;0.0;0.0;19.10.18;10829
EUREF-Campus 21/22;Berlin;1525;52.481126;Normalladeeinrichtung;13.356509;1;Gesellschaft für verteilte Energiesysteme mbH;AC Steckdose Typ 2;;;;11.0;0.0;0.0;0.0;19.10.18;10829
EUREF-Campus 21/22;Berlin;1526;52.481102;Normalladeeinrichtung;13.356435;1;Gesellschaft für verteilte Energiesysteme mbH;AC Steckdose Typ 2;;;;11.0;0.0;0.0;0.0;19.10.18;10829
EUREF-Campus 21/22;Berlin;1527;52.481066;Normalladeeinrichtung;13.35639;1;Gesellschaft für verteilte Energiesysteme mbH;AC Steckdose Typ 2;;;;11.0;0.0;0.0;0.0;19.10.18;10829
EUREF-Campus 21/22;Berlin;1528;52.481022;Normalladeeinrichtung;13.356296;1;Gesellschaft für verteilte Energiesysteme mbH;AC Steckdose Typ 2;;;;11.0;0.0;0.0;0.0;19.10.18;10829
EUREF-Campus 21/22;Berlin;1529;52.48093;Normalladeeinrichtung;13.356216;1;Gesellschaft für verteilte Energiesysteme mbH;AC Steckdose Typ 2;;;;11.0;0.0;0.0;0.0;19.10.18;10829
EUREF-Campus 21/22;Berlin;1530;52.480858;Normalladeeinrichtung;13.356207;1;Gesellschaft für verteilte Energiesysteme mbH;AC Steckdose Typ 2;;;;11.0;0.0;0.0;0.0;19.10.18;10829
EUREF-Campus 21/22;Berlin;1531;52.480785;Normalladeeinrichtung;13.356236;1;Gesellschaft für verteilte Energiesysteme mbH;AC Steckdose Typ 2;;;;11.0;0.0;0.0;0.0;19.10.18;10829
EUREF-Campus 21/22;Berlin;1532;52.480739;Normalladeeinrichtung;13.356282;1;Gesellschaft für verteilte Energiesysteme mbH;AC Steckdose Typ 2;;;;11.0;0.0;0.0;0.0;19.10.18;10829
EUREF-Campus 21/22;Berlin;1533;52.480703;Normalladeeinrichtung;13.356337;1;Gesellschaft für verteilte Energiesysteme mbH;AC Steckdose Typ 2;;;;11.0;0.0;0.0;0.0;19.10.18;10829
EUREF-Campus 21/22;Berlin;1534;52.480662;Normalladeeinrichtung;13.356405;1;Gesellschaft für verteilte Energiesysteme mbH;AC Steckdose Typ 2;;;;11.0;0.0;0.0;0.0;19.10.18;10829
EUREF-Campus 21/22;Berlin;1535;52.48064;Normalladeeinrichtung;13.356477;1;Gesellschaft für verteilte Energiesysteme mbH;AC Steckdose Typ 2;;;;11.0;0.0;0.0;0.0;19.10.18;10829
EUREF-Campus 21/22;Berlin;1536;52.480977;Normalladeeinrichtung;13.356744;1;Gesellschaft für verteilte Energiesysteme mbH;AC Steckdose Typ 2;;;;11.0;0.0;0.0;0.0;19.10.18;10829
EUREF-Campus 21/22;Berlin;1537;52.481;Normalladeeinrichtung;13.356671;1;Gesellschaft für verteilte Energiesysteme mbH;AC Steckdose Typ 2;;;;11.0;0.0;0.0;0.0;19.10.18;10829
EUREF-Campus 21/22;Berlin;1538;52.481005;Normalladeeinrichtung;13.356584;1;Gesellschaft für verteilte Energiesysteme mbH;AC Steckdose Typ 2;;;;11.0;0.0;0.0;0.0;19.10.18;10829
EUREF-Campus 21/22;Berlin;1539;52.480984;Normalladeeinrichtung;13.356493;1;Gesellschaft für verteilte Energiesysteme mbH;AC Steckdose Typ 2;;;;11.0;0.0;0.0;0.0;19.10.18;10829
EUREF-Campus 21/22;Berlin;1540;52.480949;Normalladeeinrichtung;13.356424;1;Gesellschaft für verteilte Energiesysteme mbH;AC Steckdose Typ 2;;;;11.0;0.0;0.0;0.0;19.10.18;10829
EUREF-Campus 21/22;Berlin;1541;52.480949;Normalladeeinrichtung;13.356424;1;Gesellschaft für verteilte Energiesysteme mbH;AC Steckdose Typ 2;;;;11.0;0.0;0.0;0.0;19.10.18;10829
EUREF-Campus 21/22;Berlin;1542;52.480894;Normalladeeinrichtung;13.356389;1;Gesellschaft für verteilte Energiesysteme mbH;AC Steckdose Typ 2;;;;11.0;0.0;0.0;0.0;19.10.18;10829
EUREF-Campus 21/22;Berlin;1543;52.480823;Normalladeeinrichtung;13.35642;1;Gesellschaft für verteilte Energiesysteme mbH;AC Steckdose Typ 2;;;;11.0;0.0;0.0;0.0;19.10.18;10829
EUREF-Campus 21/22;Berlin;1544;52.480924;Normalladeeinrichtung;13.356645;1;Gesellschaft für verteilte Energiesysteme mbH;AC Steckdose Typ 2;;;;11.0;0.0;0.0;0.0;19.10.18;10829
EUREF-Campus 21/22;Berlin;1545;52.480937;Normalladeeinrichtung;13.356552;1;Gesellschaft für verteilte Energiesysteme mbH;AC Steckdose Typ 2;;;;11.0;0.0;0.0;0.0;19.10.18;10829
EUREF-Campus 21/22;Berlin;1546;52.480886;Normalladeeinrichtung;13.356515;1;Gesellschaft für verteilte Energiesysteme mbH;AC Steckdose Typ 2;;;;11.0;0.0;0.0;0.0;19.10.18;10829
EUREF-Campus 21/22;Berlin;1547;52.48084;Normalladeeinrichtung;13.356609;1;Gesellschaft für verteilte Energiesysteme mbH;AC Steckdose Typ 2;;;;11.0;0.0;0.0;0.0;19.10.18;10829
EUREF-Campus 21/22;Berlin;1548;52.480875;Normalladeeinrichtung;13.356698;1;Gesellschaft für verteilte Energiesysteme mbH;AC Steckdose Typ 2;;;;11.0;0.0;0.0;0.0;19.10.18;10829
EUREF-Campus 21/22;Berlin;1549;52.480898;Normalladeeinrichtung;13.356768;1;Gesellschaft für verteilte Energiesysteme mbH;AC Steckdose Typ 2;;;;11.0;0.0;0.0;0.0;19.10.18;10829
EUREF-Campus 21/22;Berlin;1550;52.480932;Normalladeeinrichtung;13.356854;1;Gesellschaft für verteilte Energiesysteme mbH;AC Steckdose Typ 2;;;;11.0;0.0;0.0;0.0;19.10.18;10829
Wilhelm-Kabus-Str. 79 / Naumannstr. 81;Berlin;1551;52.478634;Normalladeeinrichtung;13.363947;2;Senertec Center Berlin Brandenburg GmbH;AC Steckdose Typ 2;AC Steckdose Typ 2;;;11.0;11.0;0.0;0.0;30.11.18;10829
Mehringdamm 10;Berlin;1552;52.497232;Normalladeeinrichtung;13.388703;2;Allego GmbH;AC Steckdose Typ 2;AC Steckdose Typ 2;;;11.0;11.0;0.0;0.0;31.05.16;10961
Südstern 14;Berlin;1553;52.488685;Normalladeeinrichtung;13.407274;2;Allego GmbH;AC Steckdose Typ 2;AC Steckdose Typ 2;;;11.0;11.0;0.0;0.0;25.02.16;10961
Blücherstr. 19;Berlin;1554;52.4948;Normalladeeinrichtung;13.398243;2;Allego GmbH;AC Steckdose Typ 2;AC Steckdose Typ 2;;;11.0;11.0;0.0;0.0;05.12.15;10961
Solmsstr. 16;Berlin;1555;52.491988;Normalladeeinrichtung;13.390709;2;Allego GmbH;AC Steckdose Typ 2;AC Steckdose Typ 2;;;11.0;11.0;0.0;0.0;10.10.15;10961
Nostitzstr. 36;Berlin;1556;52.489861;Normalladeeinrichtung;13.390284;2;Allego GmbH;AC Steckdose Typ 2;AC Steckdose Typ 2;;;11.0;11.0;0.0;0.0;03.08.17;10961
Gabriele-Tergit-Promenade 1;Berlin;1557;52.508248;Normalladeeinrichtung;13.376504;2;innogy SE;AC Steckdose Typ 2;AC Steckdose Typ 2;;;22.0;22.0;0.0;0.0;15.04.10;10963
Bernburger Str. 34;Berlin;1558;52.504762;Normalladeeinrichtung;13.380887;2;Allego GmbH;AC Steckdose Typ 2;AC Steckdose Typ 2;;;11.0;11.0;0.0;0.0;28.11.15;10963
Wartenburgstr. 24;Berlin;1559;52.495127;Normalladeeinrichtung;13.383722;2;Allego GmbH;AC Steckdose Typ 2;AC Steckdose Typ 2;;;11.0;11.0;0.0;0.0;10.10.15;10963
Möckernstr. 93;Berlin;1560;52.493218;Normalladeeinrichtung;13.379659;2;Allego GmbH;AC Steckdose Typ 2;AC Steckdose Typ 2;;;11.0;11.0;0.0;0.0;16.12.17;10963
Schwiebusser Str. ggü. 46;Berlin;1561;52.485901;Normalladeeinrichtung;13.394098;2;Allego GmbH;AC Steckdose Typ 2;AC Steckdose Typ 2;;;11.0;11.0;0.0;0.0;07.07.16;10965
Kreuzbergstr. 22;Berlin;1562;52.489843;Normalladeeinrichtung;13.381119;2;Allego GmbH;AC Steckdose Typ 2;AC Steckdose Typ 2;;;11.0;11.0;0.0;0.0;23.02.16;10965
Schenkendorfstr. 8;Berlin;1563;52.489075;Normalladeeinrichtung;13.392945;2;Allego GmbH;AC Steckdose Typ 2;AC Steckdose Typ 2;;;11.0;11.0;0.0;0.0;07.11.15;10965
Lenaustr. 1;Berlin;1564;52.489938;Normalladeeinrichtung;13.424433;2;Allego GmbH;AC Steckdose Typ 2;AC Steckdose Typ 2;;;11.0;11.0;0.0;0.0;15.02.16;10967
Schönleinstr. ggü. 20;Berlin;1565;52.490197;Normalladeeinrichtung;13.419889;2;Allego GmbH;AC Steckdose Typ 2;AC Steckdose Typ 2;;;11.0;11.0;0.0;0.0;20.11.15;10967
Grimmstr. 9;Berlin;1566;52.493476;Normalladeeinrichtung;13.413538;2;Allego GmbH;AC Steckdose Typ 2;AC Steckdose Typ 2;;;11.0;11.0;0.0;0.0;22.12.15;10967
Markgrafenstr. 18;Berlin;1567;52.506311;Normalladeeinrichtung;13.394584;2;Allego GmbH;AC Steckdose Typ 2;AC Steckdose Typ 2;;;11.0;11.0;0.0;0.0;05.07.16;10969
Lindenstr. 113;Berlin;1568;52.499942;Normalladeeinrichtung;13.394772;2;Allego GmbH;AC Steckdose Typ 2;AC Steckdose Typ 2;;;11.0;11.0;0.0;0.0;08.04.16;10969
Prinzenstr. 97;Berlin;1569;52.50041;Schnellladeeinrichtung;13.407904;2;Allego GmbH;DC Kupplung Combo, DC CHAdeMO;AC Kupplung Typ 2;;;50.0;43.0;0.0;0.0;11.07.16;10969
Lindenstr. 113;Berlin;1570;52.499952;Schnellladeeinrichtung;13.394782;2;Allego GmbH;DC Kupplung Combo, DC CHAdeMO;AC Kupplung Typ 2;;;50.0;43.0;0.0;0.0;11.04.16;10969
Stallschreiberstr. 55;Berlin;1571;52.50427;Normalladeeinrichtung;13.409668;2;Allego GmbH;AC Steckdose Typ 2;AC Steckdose Typ 2;;;11.0;11.0;0.0;0.0;28.01.16;10969
Wassertorstr. 53;Berlin;1572;52.500008;Normalladeeinrichtung;13.407592;2;Allego GmbH;AC Steckdose Typ 2;AC Steckdose Typ 2;;;11.0;11.0;0.0;0.0;28.11.15;10969
Wrangelstr. 35;Berlin;1573;52.500491;Normalladeeinrichtung;13.437175;2;Allego GmbH;AC Steckdose Typ 2;AC Steckdose Typ 2;;;11.0;11.0;0.0;0.0;05.12.15;10997
Eisenbahnstr. 39;Berlin;1574;52.502519;Normalladeeinrichtung;13.432597;2;Allego GmbH;AC Steckdose Typ 2;AC Steckdose Typ 2;;;11.0;11.0;0.0;0.0;20.11.15;10997
Glogauer Str. 20;Berlin;1575;52.492326;Normalladeeinrichtung;13.436405;2;Allego GmbH;AC Steckdose Typ 2;AC Steckdose Typ 2;;;11.0;11.0;0.0;0.0;05.07.16;10999
Reichenberger Str. 20;Berlin;1576;52.498568;Normalladeeinrichtung;13.419909;2;Allego GmbH;AC Steckdose Typ 2;AC Steckdose Typ 2;;;11.0;11.0;0.0;0.0;22.12.15;10999
